id_gare;nom_gare;trigramme;lat;lon;id_commune;nom_commune
87313759;Abancourt;ABT;49.6852237; 1.7743058;60001;ABANCOURT
87481614;Abbaretz;AAR;47.5546432; -1.5244159;44001;ABBARETZ
87317362;Abbeville;ABB;50.10221; 1.82449;80001;ABBEVILLE
87545269;Ablon-sur-Seine;ABL;48.725468; 2.419151;94001;ABLON-SUR-SEINE
87386052;Achères Grand Cormier;GCR;48.9551835; 2.0919031;78551;SAINT-GERMAIN-EN-LAYE
87381657;Achères Ville;ACW;48.97011; 2.07739;78005;ACHERES
87342048;Achiet-le-Grand;ACT;50.1317525; 2.780168;62005;ACHIET-LE-GRAND
87271460;Aéroport Charles de Gaulle 1;RSY;49.00956; 2.56135;93073;TREMBLAY-EN-FRANCE
"87271494;87001479";Aéroport Charles de Gaulle 2 TGV;RYT;49.003652; 2.570892;93073;TREMBLAY-EN-FRANCE
87757559;Agay;AGH;43.4313701; 6.8564997;83118;SAINT-RAPHAEL
87781278;Agde;AGD;43.31728; 3.466203;34003;AGDE
87586008;Agen;AGN;44.208311; 0.620932;47001;AGEN
87595157;Agonac;AGA;45.2865966; 0.7486706;24002;AGONAC
87171702;Aguilcourt - Variscourt;AGK;49.408017; 3.973137;2761;VARISCOURT
87485193;Aigrefeuille le Thou;AGR;46.09402; -0.95168;17447;LE THOU
87741421;Aiguebelette-le-Lac;AGQ;45.5363048; 5.8131468;73001;AIGUEBELETTE-LE-LAC
87741256;Aiguebelle;AEB;45.5437225; 6.3067175;73002;AIGUEBELLE
87734129;Aigueperse;AGE;46.0147884; 3.1982621;63001;AIGUEPERSE
87775858;Aigues-Mortes;AIM;43.5709008; 4.1912102;30003;AIGUES-MORTES
87586693;Aiguillon;AIN;44.2987224; 0.3352388;47004;AIGUILLON
87185629;Aillevillers;AIP;47.9138876; 6.3372988;70171;CORBENAY
87313221;Ailly-sur-Noye;ASN;49.75448; 2.36419;80010;AILLY-SUR-NOYE
87313098;Ailly-sur-Somme;AYS;49.92838; 2.20059;80011;AILLY-SUR-SOMME
87775833;Aimargues;AIA;43.6786107; 4.2082933;30006;AIMARGUES
87741769;Aime - La Plagne;ANJ;45.5544; 6.648646;73006;AIME
87713636;Aiserey;ASI;47.170501; 5.1582447;21005;AISEREY
87751404;Aix-en-Provence;AXP;43.522912; 5.445345;13001;AIX-EN-PROVENCE
87319012;Aix-en-Provence TGV;AXV;43.455237; 5.317534;13001;AIX-EN-PROVENCE
87741132;Aix-les-Bains le Revard;AIX;45.688161; 5.909371;73008;AIX-LES-BAINS
87592667;Aixe-sur-Vienne;ASV;45.7965002; 1.1456892;87001;AIXE-SUR-VIENNE
87722744;Alaï;ALA;45.7521198; 4.7717824;69244;TASSIN-LA-DEMI-LUNE
87746115;Albens;ABN;45.785946; 5.9483418;73010;ALBENS
87313072;Albert;ALJ;50.00546; 2.64453;80016;ALBERT
87741645;Albertville;ALV;45.672977; 6.383167;73011;ALBERTVILLE
87615005;Albi;ALB;43.92238; 2.137958;81004;ALBI
87615195;Albi Madeleine;ALM;43.938011; 2.1409629;81004;ALBI
87613398;Albias;ALE;44.0919078; 1.4448012;82002;ALBIAS
87721266;Albigny - Neuville;VVN;45.874921; 4.832874;69003;ALBIGNY-SUR-SAONE
87444711;Alençon;ALN;48.433884; 0.098531;61001;ALENCON
87775288;Alès;ALS;44.127825; 4.084948;30007;ALES
87594234;Allassac;AAA;45.2589385; 1.4731471;19005;ALLASSAC
87113878;Allée de la Tour Rendez-Vous;AET;48.897109; 2.506475;93057;LES PAVILLONS-SOUS-BOIS
87710913;Allée Royale;AYL;48.81431; 2.07827;78646;VERSAILLES
87783654;Allenc;AEN;44.541296; 3.6638926;48003;ALLENC
87731885;Alleyras;AES;44.919217; 3.673517;43005;ALLEYRAS
87182238;Altkirch;ALK;47.6270174; 7.2392493;68004;ALTKIRCH
87172262;Amagne - Lucquy;AMA;49.5238187; 4.4738775;8008;AMAGNE
87592311;Ambazac;ABZ;45.9529056; 1.406501;87002;AMBAZAC
87743716;Ambérieu-en-Bugey;AMB;45.954008; 5.342388;1004;AMBERIEU-EN-BUGEY
87574343;Amboise;AMQ;47.42148; 0.981299;37003;AMBOISE
87743146;Ambronay - Priay;AAI;46.0115941; 5.3382579;1007;AMBRONAY
87313874;Amiens;AMS;49.890746; 2.312592;80021;AMIENS
87171744;Amifontaine;AMF;49.4847322; 3.9105811;2013;AMIFONTAINE
87394205;Amilly Ouerray;AMY;48.4381825; 1.3892882;28006;AMILLY
87721035;Amplepuis;AMP;45.970982; 4.326844;69006;AMPLEPUIS
87481192;Ancenis;ANC;47.369334; -1.177763;44003;ANCENIS
87172858;Anchamps;ACP;49.9307448; 4.6702434;8011;ANCHAMPS
87575332;Anché - Voulon;ACV;46.3496187; 0.2503424;86003;ANCHE
87192419;Ancy-sur-Moselle;AYM;49.0575093; 6.0627661;57021;ANCY-SUR-MOSELLE
87715102;Andelot-en-Montagne;AND;46.8594671; 5.923584;39009;ANDELOT-EN-MONTAGNE
87611517;Andorre – l’Hospitalet;LHT;42.5894535; 1.8002635;9139;L'HOSPITALET-PRES-L'ANDORRE
87381491;Andrésy;ACY;48.9747; 2.04928;78015;ANDRESY
87726406;Andrézieux-Bouthéon;ANZ;45.5217037; 4.254834;42005;ANDREZIEUX-BOUTHEON
87484048;Angers Maître École;AME;47.4670899; -0.531894;49007;ANGERS
87484006;Angers Saint-Laud;ASL;47.464647; -0.55682;49007;ANGERS
87543090;Angerville;AGV;48.3112062; 2.0034931;91016;ANGERVILLE
87583005;Angoulême;ANG;45.653572; 0.164608;16015;ANGOULEME
87485102;Angoulins sur Mer;AOM;46.108057; -1.1154503;17010;ANGOULINS
87296566;Anizy - Pinon;API;49.4960073; 3.4487637;2602;PINON
87286856;Annappes;ANP;50.6227708; 3.1475351;59009;VILLENEUVE-D'ASCQ
87746008;Annecy;ANY;45.901965; 6.121835;74010;ANNECY
87745497;Annemasse;ANE;46.199222; 6.23652;74012;ANNEMASSE
87295055;Anor;ANO;49.984892; 4.0929803;59012;ANOR
87721324;Anse Halte;AHA;45.93929; 4.71987;69009;ANSE
87757567;Anthéor Cap Roux;AHC;43.4349641; 6.8921036;83118;SAINT-RAPHAEL
87757674;Antibes;ATB;43.585784; 7.119498;6004;ANTIBES
87317255;Anvin;ANV;50.446845; 2.25494;62036;ANVIN
87191643;Apach;APJ;49.458836; 6.371972;57026;APACH
87296459;Appilly;APP;49.5808826; 3.1221903;60021;APPILLY
87582726;Arbanats;ABH;44.6743555; -0.3954517;33007;ARBANATS
87718155;Arbois;AOI;46.912509; 5.7648273;39013;ARBOIS
87718841;Arc-et-Senans;ACA;47.0303516; 5.7767843;25021;ARC-ET-SENANS
87582668;Arcachon;ARC;44.659009; -1.16523;33009;ARCACHON
87144410;Arches;ARH;48.1198133; 6.5283085;88011;ARCHES
87683680;Arcy-sur-Cure;ACU;47.6008461; 3.7668885;89015;ARCY-SUR-CURE
87580340;Arenc Euroméditerranée;AEM;43.3132339; 5.3676221;13202;MARSEILLE--2E--ARRONDISSEMENT
87671479;Arengosse;ARO;44.0069764; -0.8093835;40006;ARENGOSSE
87784231;Argelès-sur-Mer;AMR;42.54397; 3.022349;66008;ARGELES-SUR-MER
87444539;Argentan;ARG;48.738545; -0.025291;61006;ARGENTAN
87381848;Argenteuil;ARW;48.94686; 2.25727;95018;ARGENTEUIL
87746859;Argentière;AGI;45.9819438; 6.9264844;74056;CHAMONIX-MONT-BLANC
87597120;Argenton-sur-Creuse;AGC;46.592248; 1.518305;36006;ARGENTON-SUR-CREUSE
87753657;Arles;ARS;43.684853; 4.63203;13004;ARLES
87345421;Arleux;ARX;50.2863204; 3.1208073;59015;ARLEUX
87286146;Armentières;ARM;50.68084; 2.87763;59017;ARMENTIERES
87396549;Arnage;AAG;47.9285663; 0.1898826;72008;ARNAGE
87281121;Arnèke;ARN;50.831522; 2.4083063;59018;ARNEKE
87545467;Arpajon;ARP;48.58617; 2.24112;91021;ARPAJON
87342014;Arras;ARR;50.286673; 2.781942;62041;ARRAS
87394486;Arrou;AOU;48.0997945; 1.1285567;28012;ARROU
87192401;Ars-sur-Moselle;ASM;49.0744745; 6.0776461;57032;ARS-SUR-MOSELLE
87543058;Artenay;ATY;48.0808761; 1.8833705;45008;ARTENAY
87672212;Artix;ATI;43.3931062; -0.5701881;64061;ARTIX
87734251;Arvant;ARV;45.3653797; 3.3106747;43038;BOURNONCLE-SAINT-PIERRE
87286864;Ascq;ASC;50.6218591; 3.1598992;59009;VILLENEUVE-D'ASCQ
87381137;Asnières-sur-Seine;AEE;48.9058; 2.28324;92004;ASNIERES-SUR-SEINE
87763250;Aspres-sur-Buëch;ASH;44.519428; 5.7545655;5010;ASPRES-SUR-BUECH
87672162;Assat;ATK;43.2543993; -0.2950176;64067;ASSAT
87613075;Assier;AER;44.6746197; 1.8697681;46009;ASSIER
87545251;Athis-Mons;ATH;48.712557; 2.403749;91027;ATHIS-MONS
87751750;Aubagne;AUB;43.296045; 5.56658;13005;AUBAGNE
87594465;Aubazines - Saint-Hilaire;ABA;45.1816781; 1.6412346;19211;SAINT-HILAIRE-PEYROUX
87386730;Aubergenville Élisabethville;AEH;48.971825; 1.8484987;78029;AUBERGENVILLE
87734111;Aubiat;AUK;45.983812; 3.1605115;63013;AUBIAT
87491233;Aubie - Saint-Antoine;ATX;45.0151419; -0.4198843;33018;AUBIE-ET-ESPESSAS
87611764;Aubiet;AIT;43.6502068; 0.7891179;32012;AUBIET
87396572;Aubigné-Racan;ABG;47.686945; 0.2657714;72013;AUBIGNE-RACAN
87345447;Aubigny-au-Bac;AAB;50.2685315; 3.158706;59026;AUBIGNY-AU-BAC
87342246;Aubigny-en-Artois;ABI;50.35297; 2.5928045;62045;AUBIGNY-EN-ARTOIS
87613224;Aubin;AVB;44.5272762; 2.2393128;12013;AUBIN
87316604;Aubin-Saint-Vaast;AUV;50.3946137; 1.9705382;62046;AUBIN-SAINT-VAAST
87191684;Auboué;ABE;49.216163; 5.9714608;54028;AUBOUE
87172122;Aubrives;ARI;50.1044507; 4.7616512;8028;AUBRIVES
87611749;Auch;AUH;43.647488; 0.596661;32013;AUCH
87317230;Auchy-lès-Hesdin;AHH;50.3963631; 2.1022448;62050;AUCHY-LES-HESDIN
87444059;Audrieu;ADR;49.2161315; -0.5960138;14026;AUDRIEU
87281428;Audruicq;ADQ;50.87567; 2.07636;62057;AUDRUICQ
87194357;Audun-le-Roman;ALR;49.36682; 5.89139;54029;AUDUN-LE-ROMAN
87415158;Auffay;AUF;49.716044; 1.098441;76034;AUFFAY
87562421;Aulnat Aéroport;AUL;45.7920571; 3.1614332;63019;AULNAT
87271411;Aulnay-sous-Bois;ABM;48.93179; 2.49431;93005;AULNAY-SOUS-BOIS
87295600;Aulnoye-Aymeries;AYE;50.19749; 3.84337;59033;AULNOYE-AYMERIES
87313767;Aumale;AUM;49.7650371; 1.7560425;76035;AUMALE
87783266;Aumont-Aubrac;AAU;44.7181699; 3.2835489;48009;AUMONT-AUBRAC
87545657;Auneau;AUN;48.4458242; 1.77998;28317;ROINVILLE
87476200;Auray;ARY;47.68022; -2.999995;56007;AURAY
87726760;Aurec-sur-Loire;AEC;45.3711611; 4.1983439;43012;AUREC-SUR-LOIRE
87645002;Aurillac;AUC;44.921092; 2.435655;15014;AURILLAC
87611384;Auterive;AIE;43.348993; 1.468831;31033;AUTERIVE
87276543;Auvers-sur-Oise;AUW;49.07062; 2.17526;95039;AUVERS-SUR-OISE
87683573;Auxerre Saint-Gervais;AUX;47.797645; 3.58514;89024;AUXERRE
87713347;Auxonne;AXO;47.192663; 5.37737;21639;TILLENAY
87683789;Avallon;AVA;47.4957553; 3.9124463;89025;AVALLON
87171579;Avenay;AAY;49.0647826; 4.043689;51028;AVENAY-VAL-D'OR
87543207;Avenue du Président Kennedy Maison de Radio France;APK;48.853322; 2.279969;75116;PARIS-16E-ARRONDISSEMENT
87381038;Avenue Foch;AVF;48.870971; 2.2756167;75116;PARIS-16E-ARRONDISSEMENT
87381046;Avenue Henri Martin;AHM;48.8644077; 2.272238;75116;PARIS-16E-ARRONDISSEMENT
87295725;Avesnelles;AVS;50.1185513; 3.9485876;59035;AVESNELLES
87295733;Avesnes-sur-Helpe;AVN;50.12674; 3.93295;59036;AVESNES-SUR-HELPE
87765008;Avignon Centre;AVI;43.9419; 4.805281;84007;AVIGNON
"87981902;87318964";Avignon TGV;AVV;43.921586; 4.786079;84007;AVIGNON
87616011;Avignonet-Lauragais;AWG;43.3638769; 1.7872687;31037;AVIGNONET-LAURAGAIS
87342584;Avion;AON;50.40723; 2.83365;62065;AVION
87576439;Avord;ADG;47.0349061; 2.6523757;18018;AVORD
87718551;Avoudrey;AVO;47.1298359; 6.434573;25039;AVOUDREY
87448514;Avranches;AVR;48.6902445; -1.3700755;50025;AVRANCHES
87313296;Avrechy;AVY;49.4446439; 2.4179608;60034;AVRECHY
87611533;Ax-les-Thermes;AXN;42.7247967; 1.8332516;9032;AX-LES-THERMES
87171561;Ay;AYN;49.0487318; 4.0015644;51030;AY
87437806;Aytré Plage;ATL;46.1273815; -1.1280462;17028;AYTRE
87571638;Azay-le-Rideau;AZR;47.2663383; 0.4475388;37014;AZAY-LE-RIDEAU
87574442;Azay-sur-Cher;EUR;47.3652695; 0.8599885;37156;MONTLOUIS-SUR-LOIRE
87141408;Azerailles;AZE;48.4913355; 6.695778;54038;AZERAILLES
87590349;Babinière;BBR;47.25875274; -1.544928378;44035;LA CHAPELLE-SUR-ERDRE
87141416;Baccarat;BAC;48.452405; 6.74383;54039;BACCARAT
87613604;Bagnac-sur-Célé;BAG;44.6652105; 2.1602503;46015;BAGNAC-SUR-CELE
87684191;Bagneaux-sur-Loing;BXN;48.2304802; 2.7033327;77016;BAGNEAUX-SUR-LOING
87783647;Bagnols - Chadenet;BCT;44.5286125; 3.628178;48037;CHADENET
87764571;Bagnols-sur-Cèze;BSC;44.161626; 4.627032;30028;BAGNOLS-SUR-CEZE
87773457;Baillargues;BGU;43.6533234; 4.0071585;34022;BAILLARGUES
87394411;Bailleau-le-Pin;BAP;48.3668028; 1.3248851;28021;BAILLEAU-LE-PIN
87286179;Bailleul;BIU;50.72916; 2.73445;59043;BAILLEUL
87342592;Bailleul-Sir-Berthoult;BSH;50.3351257; 2.8409809;62073;BAILLEUL-SIR-BERTHOULT
87710780;Bailly;BLY;48.837331; 2.073981;78043;BAILLY
87144147;Bains-les-Bains;BNS;47.9811282; 6.2952683;88108;LE CLERJUS
87286872;Baisieux;BAI;50.61845; 3.2347796;59044;BAISIEUX
87313569;Balagny Saint-Épin;BXE;49.2942448; 2.3441977;60044;BALAGNY-SUR-THERAIN
87726869;Balbigny;BBY;45.817858; 4.187443;42011;BALBIGNY
87571604;Ballan-Miré;BME;47.3369919; 0.6188975;37018;BALLAN-MIRE
87681437;Ballancourt-sur-Essonne;BUR;48.532114; 2.371274;91045;BALLANCOURT-SUR-ESSONNE
87111864;Balsièges;BKB;44.4820108; 3.4560976;48016;BALSIEGES
87783324;Banassac - La Canourgue;BAA;44.4477632; 3.1958518;48017;BANASSAC
87755223;Bandol;BND;43.140344; 5.750118;83009;BANDOL
87474189;Bannalec;BNC;47.9267473; -3.7065268;29004;BANNALEC
87182840;Bantzenheim;BTZ;47.8109675; 7.5038675;68020;BANTZENHEIM
87784298;Banyuls-sur-Mer;BAN;42.4829582; 3.1250496;66016;BANYULS-SUR-MER
87175042;Bar-le-Duc;BLD;48.773308; 5.166822;55029;BAR-LE-DUC
87118299;Bar-sur-Aube;BRB;48.2385399; 4.7066708;10033;BAR-SUR-AUBE
87615757;Baraqueville Carcenac Peyralès;BAQ;44.2704368; 2.4275453;12056;BARAQUEVILLE
87411264;Barentin;BTM;49.549123; 0.953517;76057;BARENTIN
87783563;Barjac;BJC;44.4992638; 3.4109786;48018;BARJAC
87192658;Baroncourt;BTS;49.2845332; 5.6997387;55158;DOMMARY-BARONCOURT
87214247;Barr;BAR;48.4032933; 7.4565189;67021;BARR
87582759;Barsac;BSQ;44.6054306; -0.3215775;33030;BARSAC
87182113;Bartenheim;BTK;47.6349313; 7.4872561;68021;BARTENHEIM
87726778;Bas - Monistrol-sur-Loire;BMO;45.297596; 4.139602;43020;BAS-EN-BASSET
87184200;Bas Évette;BEV;47.6810089; 6.8068494;90042;EVETTE-SALBERT
87699223;Base Aérienne;BAE;47.320184; 1.681869;41194;ROMORANTIN-LANTHENAY
87191601;Basse-Ham;BHD;49.3805708; 6.2348709;57287;BASSE-HAM
87581850;Bassens;BAS;44.9012933; -0.5223144;33032;BASSENS
87481770;Batz-sur-Mer;BSK;47.2809541; -2.4789866;44010;BATZ-SUR-MER
87574152;Baule;BLJ;47.8117535; 1.668127;45024;BAULE
87718460;Baume-les-Dames;BDA;47.353937; 6.359603;25047;BAUME-LES-DAMES
87345280;Bauvin - Provin;BVP;50.51168; 2.9054;59052;BAUVIN
87444067;Bayeux;BAY;49.269836; -0.698056;14047;BAYEUX
87141218;Bayon;BYN;48.468046; 6.322569;54585;VIRECOURT
87673004;Bayonne;BYE;43.496801; -1.470306;64102;BAYONNE
87171462;Bazancourt;BZT;49.361202; 4.173887;51043;BAZANCOURT
87611723;Baziège;BAZ;43.4535696; 1.6205019;31048;BAZIEGE
87696468;Béard;BVE;46.8652207; 3.3179944;58025;BEARD
87317610;Beau Marais;BMQ;50.945371; 1.8983301;62193;CALAIS
87775023;Beaucaire;BCK;43.80209; 4.6470865;30032;BEAUCAIRE
87574160;Beaugency;BGY;47.778365; 1.625938;45028;BEAUGENCY
87756379;Beaulieu-sur-Mer;BUM;43.706651; 7.331545;6011;BEAULIEU-SUR-MER
87387183;Beaumont-le-Roger;BLR;49.0741722; 0.7727865;27051;BEAUMONT-LE-ROGER
87713545;Beaune;BEA;47.023053; 4.848379;21054;BEAUNE
87317198;Beaurainville;BIV;50.422891; 1.895345;62100;BEAURAINVILLE
87582700;Beautiran;BIR;44.701041; -0.45017;33037;BEAUTIRAN
87313510;Beauvais;BVS;49.42648; 2.08869;60057;BEAUVAIS
87485342;Beauvoir-sur-Niort;BVK;46.1768857; -0.4687544;79031;BEAUVOIR-SUR-NIORT
87775809;Beauvoisin;BVW;43.7245026; 4.3212178;30033;BEAUVOISIN
87382002;Bécon les Bruyères;BEC;48.90592; 2.26838;92026;COURBEVOIE
87781609;Bédarieux;BED;43.6086972; 3.1495688;34028;BEDARIEUX
87765198;Bédarrides;BDR;44.0407636; 4.8931321;84016;BEDARRIDES
87672774;Bedous;GGM;42.99589; -0.60348;64104;BEDOUS
87581801;Bègles;BGL;44.7995389; -0.5552495;33039;BEGLES
87491076;Beillant;BIL;45.7007999; -0.5265079;17400;SAINT-SEVER-DE-SAINTONGE
87184002;Belfort;BFT;47.633284; 6.853956;90010;BELFORT
87300822;Belfort - Montbéliard TGV;BFB;47.585937; 6.897687;90068;MEROUX
87592485;Bellac;BLL;46.1252044; 1.0461168;87011;BELLAC
87473165;Belle-Isle - Bégard;BIB;48.5935901; -3.3228532;22135;LOUARGAT
87745000;Bellegarde-sur-Valserine;BGD;46.109425; 5.823483;1033;BELLEGARDE-SUR-VALSERINE
87641068;Bellenaves;BLE;46.199256; 3.0665239;3022;BELLENAVES
87486142;Bellevigny;BVD;46.788316; -1.4346673;85019;BELLEVILLE-SUR-VIE
87141804;Belleville;BEE;48.8195721; 6.1018641;54060;BELLEVILLE
87721357;Belleville sur Sâone;BVL;46.111917; 4.729028;69019;BELLEVILLE
87393116;Bellevue;BLU;48.8190033; 2.2296743;92048;MEUDON
87743526;Bellignat;BNI;46.2381265; 5.6298849;1031;BELLIGNAT
87276550;Belloy - Saint-Martin;BSW;49.09807; 2.36135;95056;BELLOY-EN-FRANCE
87595876;Belvès;BES;44.7773978; 1.0118831;24035;BELVES
87783670;Belvezet;BVZ;44.5617971; 3.7518919;48023;BELVEZET
87476408;Belz - Ploemel;BZP;47.652466; -3.0721919;56161;PLOEMEL
87673285;Bénesse-Maremne;BMX;43.6277484; -1.3698505;40036;BENESSE-MAREMNE
87192302;Bénestroff;BEN;48.90656; 6.75266;57060;BENESTROFF
87214122;Benfeld;BFD;48.3735367; 7.584125;67028;BENFELD
87576447;Bengy-sur-Craon;BNH;47.0004698; 2.7492361;18027;BENGY-SUR-CRAON
87193250;Béning-lès-Saint-Avold;BNG;49.1379541; 6.8282982;57061;BENING-LES-SAINT-AVOLD
87584268;Bergerac;BGC;44.857061; 0.489174;24037;BERGERAC
87281105;Bergues;BEG;50.96901; 2.42574;59067;BERGUES
87295808;Berlaimont;BER;50.1980095; 3.8105316;59068;BERLAIMONT
87444299;Bernay;BEY;49.087102; 0.595634;27056;BERNAY
87592352;Bersac-sur-Rivalier;BHA;46.0837459; 1.4321682;87013;BERSAC-SUR-RIVALIER
87215335;Berthelming;BHN;48.8096475; 7.0087859;57066;BERTHELMING
87141424;Bertrichamps;BHZ;48.4283359; 6.7912343;54065;BERTRICHAMPS
87345553;Bertry;BTD;50.0911265; 3.4489955;59074;BERTRY
87300863;Besançon Franche-Comté TGV;BFC;47.307361058531725; 5.953195095062256;25035;AUXON-DESSUS
87718015;Besançon Mouillère;BNM;47.240372; 6.03391;25056;BESANCON
87718007;Besançon Viotte;BNV;47.247019; 6.022003;25056;BESANCON
87471219;Beslé;BIQ;47.6988788; -1.8706374;44067;GUEMENE-PENFAO
87276642;Bessancourt;BSR;49.03576; 2.21004;95060;BESSANCOURT
87696336;Bessay-sur-Allier;BSS;46.4435849; 3.3606477;3025;BESSAY-SUR-ALLIER
87594747;Bétaille;BIK;44.9424281; 1.7344108;46028;BETAILLE
87342006;Béthune;BET;50.52144; 2.64055;62119;BETHUNE
87471045;Betton;BTN;48.1814803; -1.6344745;35024;BETTON
87343160;Beuvrages;BUS;50.3894892; 3.5061396;59079;BEUVRAGES
87342402;Beuvry lès Béthune;BVR;50.5356021; 2.6924093;62126;BEUVRY
87393363;Beynes;BYS;48.8593599; 1.8755696;78062;BEYNES
87723544;Beynost;BNO;45.833915; 5.006969;1043;BEYNOST
87781005;Béziers;BZS;43.33633; 3.218873;34032;BEZIERS
87342097;Biache-Saint-Vaast;BIA;50.3162525; 2.9414975;62128;BIACHE-SAINT-VAAST
87673400;Biarritz;BIZ;43.459397; -1.545915;64122;BIARRITZ
87328328;Bibliothèque François Mitterrand;BFM;48.82984; 2.37684;75113;PARIS-13E-ARRONDISSEMENT
87673699;Bidarray Pont Noblia;PBJ;43.2682991; -1.3453233;64124;BIDARRAY
87691949;Bidos;EON;43.17892; -0.6069;64126;BIDOS
87393546;Bièvres;BSI;48.7513289; 2.2157279;91064;BIEVRES
87582478;Biganos Facture;FAT;44.637384; -0.96621;33051;BIGANOS
87576306;Bigny;BIG;46.8015763; 2.368638;18270;VALLENAY
87345140;Billy-Montigny;BYM;50.41556; 2.91206;62133;BILLY-MONTIGNY
87757690;Biot;BJO;43.610951; 7.12609;6004;ANTIBES
87212308;Bischheim;BHM;48.6118352; 7.7422165;67043;BISCHHEIM
87214296;Bischoffsheim;BFH;48.48701; 7.49772;67045;BISCHOFFSHEIM
87213611;Bischwiller;BHW;48.765753; 7.8516536;67046;BISCHWILLER
87182576;Bitschwiller-lès-Thann;BWP;47.8273719; 7.078514;68040;BITSCHWILLER-LES-THANN
87141135;Blainville - Damelevières;BLV;48.564971; 6.386953;54152;DAMELEVIERES
87713073;Blaisy-Bas;BSB;47.3734427; 4.7410755;21080;BLAISY-BAS
87313809;Blangy-sur-Bresle;BBM;49.9326071; 1.6259074;76101;BLANGY-SUR-BRESLE
87317248;Blangy-sur-Ternoise;BIP;50.424669; 2.1721585;62138;BLANGY-SUR-TERNOISE
87581728;Blanquefort;BQF;44.917556; -0.62392;33056;BLANQUEFORT
87694612;Blanzy;BYK;46.694064; 4.3913585;71040;BLANZY
87574475;Bléré - La Croix;BCX;47.3377228; 0.9877583;37091;LA CROIX-EN-TOURAINE
87574004;Blois - Chambord;BLO;47.585445; 1.323823;41018;BLOIS
87444380;Blonville-sur-Mer - Benerville;BWB;49.3313919; 0.0356856;14079;BLONVILLE-SUR-MER
87726471;Boën-sur-Lignon;BOE;45.7413612; 4.0051544;42019;BOEN-SUR-LIGNON
87172049;Bogny-sur-Meuse;BYU;49.8583117; 4.7632317;8081;BOGNY-SUR-MEUSE
87296269;Bohain-en-Vermandois;BHI;49.9884143; 3.4431289;2095;BOHAIN-EN-VERMANDOIS
87684407;Boigneville;BWI;48.342078; 2.3789793;91069;BOIGNEVILLE
87381079;Bois-Colombes;BCO;48.91348; 2.27256;92009;BOIS-COLOMBES
87721787;Bois-d'Oingt - Légny;BDO;45.9065839; 4.575043;69111;LEGNY
87682203;Bois-le-Roi;BJR;48.475567; 2.691606;77037;BOIS-LE-ROI
87342071;Boisleux-au-Mont;BLX;50.2104665; 2.771855;62151;BOISLEUX-AU-MONT
87543082;Boisseaux;BAX;48.2566238; 1.9727681;45037;BOISSEAUX
87645184;Boisset;BCL;44.786038; 2.2497669;15021;BOISSET
87682518;Boissise-le-Roi;BKR;48.529319; 2.572953;77040;BOISSISE-LE-ROI
87381152;Boissy-l'Aillerie;BLA;49.07598; 2.02513;95078;BOISSY-L'AILLERIE
87764357;Bollène La Croisière;BLN;44.271525; 4.707908;84019;BOLLENE
87182709;Bollwiller;BOW;47.8569694; 7.2672555;68043;BOLLWILLER
87142224;Bologne;BOG;48.1986877; 5.1342228;52058;BOLOGNE
87113407;Bondy;BDY;48.894208; 2.4786;93010;BONDY
87478065;Bonnemain;BMV;48.4764049; -1.7654125;35029;BONNEMAIN
87545731;Bonneval;BOJ;48.1862958; 1.3861845;28051;BONNEVAL
87746339;Bonneville;BON;46.077772; 6.416524;74042;BONNEVILLE
87415893;Bonnières-sur-Seine;BNR;49.038788; 1.582205;78089;BONNIERES-SUR-SEINE
87745596;Bons-en-Chablais;BAB;46.270046; 6.366246;74043;BONS-EN-CHABLAIS
87726414;Bonson;BSN;45.5221941; 4.2163084;42022;BONSON
87276444;Boran-sur-Oise;BRN;49.1671348; 2.362537;60086;BORAN-SUR-OISE
87581009;Bordeaux Saint-Jean;BXJ;44.825873; -0.556697;33063;BORDEAUX
87491019;Bords;BOR;45.8944625; -0.7985436;17053;BORDS
87276717;Bornel - Belle-Église;BBI;49.19471; 2.20717;60088;BORNEL
87481200;Bouaye;BLQ;47.1380806; -1.6810992;44018;BOUAYE
87673095;Boucau;BUU;43.5234217; -1.4905872;64140;BOUCAU
87345389;Bouchain;BAK;50.2780892; 3.3319096;59092;BOUCHAIN
87775346;Boucoiran-et-Nozières;BKW;43.9926943; 4.187634;30046;BOUCOIRAN-ET-NOZIERES
87276485;Bouffémont - Moisselles;BOF;49.04514; 2.32272;95091;BOUFFEMONT
87382440;Bougival;BGV;48.8542135; 2.1323749;78126;LA CELLE-SAINT-CLOUD
87543181;Boulainvilliers;BWR;48.85645; 2.275149;75116;PARIS-16E-ARRONDISSEMENT
87725473;Boulazac;BZC;45.172291; 0.772645;24053;BOULAZAC
87317016;Boulogne Tintelleries;BKI;50.72729; 1.60904;62160;BOULOGNE-SUR-MER
87317586;Boulogne-sur-Mer;BEM;50.7157; 1.60964;62160;BOULOGNE-SUR-MER
87757534;Boulouris sur Mer;BOU;43.4163471; 6.8082519;83118;SAINT-RAPHAEL
87545178;Bouray;BSO;48.533149; 2.290596;91330;LARDY
87281279;Bourbourg;BBU;50.952267; 2.1942305;59094;BOURBOURG
87214775;Bourg-Bruche;BFZ;48.3598566; 7.1371919;67059;BOURG-BRUCHE
87743005;Bourg-en-Bresse;BGB;46.200351; 5.215063;1053;BOURG-EN-BRESSE
87784876;Bourg-Madame;BMD;42.4324069; 1.9486704;66025;BOURG-MADAME
87741793;Bourg-Saint-Maurice;BSM;45.619036; 6.771273;73054;BOURG-SAINT-MAURICE
87576207;Bourges;BGS;47.094145; 2.394255;18033;BOURGES
87481242;Bourgneuf-en-Retz;BGZ;47.0469634; -1.9551942;44021;BOURGNEUF-EN-RETZ
87723429;Bourgoin-Jallieu;BRG;45.583954; 5.273401;38053;BOURGOIN-JALLIEU
87415323;Bourgtheroulde - Thuit-Hébert;BGT;49.3174381; 0.8383198;27637;THUIT-HEBERT
87486324;Bournezeau;BNZ;46.6518258; -1.1806169;85034;BOURNEZEAU
87684118;Bourron-Marlotte - Grez;BOM;48.3326884; 2.6924552;77048;BOURRON-MARLOTTE
87481176;Boussay - La Bruffière;BBF;47.0505741; -1.1828046;44022;BOUSSAY
87611095;Boussens;BQY;43.179617; 0.972543;31084;BOUSSENS
87682138;Boussy-Saint-Antoine;BXI;48.680893; 2.532726;91097;BOUSSY-SAINT-ANTOINE
87726216;Bouthéon;BOH;45.5246289; 4.2777187;42005;ANDREZIEUX-BOUTHEON
87681478;Boutigny-sur-Essonne;BJN;48.43495; 2.37636;91099;BOUTIGNY-SUR-ESSONNE
87313213;Boves;BOV;49.8462355; 2.3981165;80131;BOVES
87615054;Bram;BRA;43.2441014; 2.1191467;11049;BRAM
87476242;Brandérion;BPZ;47.7823179; -3.1940402;56021;BRANDERION
87734244;Brassac-les-Mines - Sainte-Florine;BLM;45.414246; 3.330167;63050;BRASSAC-LES-MINES
87611822;Brax - Léguevin;BXL;43.614887; 1.236922;31088;BRAX
87713644;Brazey-en-Plaine;BEP;47.1314549; 5.2121276;21103;BRAZEY-EN-PLAINE
87413344;Bréauté - Beuzeville;BTB;49.603396; 0.417489;76141;BREAUTE
87345108;Brebières;BSU;50.33624; 3.0142;62173;BREBIERES
87182659;Breitenbach;BHH;48.0285326; 7.1040522;68051;BREITENBACH-HAUT-RHIN
87473827;Brélidy - Plouëc;BYP;48.669204; -3.196269;22212;PLOUEC-DU-TRIEUX
87487249;Bressuire;BRS;46.8384462; -0.4963269;79049;BRESSUIRE
87474007;Brest;BRT;48.38811; -4.478903;29019;BREST
87471102;Breteil;BTU;48.1405713; -1.8972095;35040;BRETEIL
87594762;Bretenoux - Biars;BXB;44.9273692; 1.8436871;46029;BIARS-SUR-CERE
87313247;Breteuil;BEB;49.626389; 2.3845164;60039;BACOUEL
87712265;Bretigny - Norges;BTQ;47.390044; 5.1105838;21107;BRETIGNY
87545194;Brétigny-sur-Orge;BYR;48.606683; 2.302378;91103;BRETIGNY-SUR-ORGE
87394270;Bretoncelles;BTO;48.4326737; 0.8923825;61061;BRETONCELLES
87444042;Bretteville - Norrey;BVO;49.2034112; -0.5127396;14098;BRETTEVILLE-L'ORGUEILLEUSE
87171322;Breuil - Romain;BPR;49.3084141; 3.7665322;51086;BREUIL
87545483;Breuillet - Bruyères-le-Châtel;BIH;48.577228; 2.191721;91105;BREUILLET
87545491;Breuillet Village;BRW;48.564776; 2.171207;91105;BREUILLET
87381624;Bréval;BVA;48.94336; 1.54191;78107;BREVAL
87763607;Briançon;BRI;44.889853; 6.633007;5023;BRIANCON
87696088;Briare;BEW;47.6464312; 2.7337154;45053;BRIARE
87592063;Brignac;BKX;45.8635812; 1.4406315;87129;ROYERES
87722728;Brignais;BGN;45.6737721; 4.7636596;69027;BRIGNAIS
87747451;Brignoud;BNU;45.26245; 5.901472;38547;VILLARD-BONNOT
87317180;Brimeux;BWM;50.4470409; 1.8313826;62177;BRIMEUX
87131961;Brion - Montréal-la-Cluse;BMC;46.1757013; 5.5585203;1063;BRION
87415364;Brionne;BEU;49.1964187; 0.7115304;27116;BRIONNE
87734269;Brioude;BRD;45.3006493; 3.3786344;43040;BRIOUDE
87448084;Briouze;BZN;48.7018622; -0.3682036;61063;BRIOUZE
87594002;Brive-la-Gaillarde;BLG;45.152618; 1.528655;19031;BRIVE-LA-GAILLARDE
87473074;Broons;BOS;48.3332957; -2.2356578;22020;BROONS
87394452;Brou;BRO;48.2157588; 1.1606705;28061;BROU
87694166;Broye;BQK;46.8619444; 4.2960996;71063;BROYE
87581736;Bruges;BGH;44.8870124; -0.609445;33075;BRUGES
87212134;Brumath;BAH;48.7331082; 7.7004016;67067;BRUMATH
87345439;Brunémont;BPN;50.2783197; 3.1453509;59115;BRUNEMONT
87682120;Brunoy;BNY;48.699112; 2.506422;91114;BRUNOY
87144154;Bruyères;BUY;48.204895; 6.7187638;88078;BRUYERES
87276451;Bruyères-sur-Oise;BRK;49.1552098; 2.3259636;95116;BRUYERES-SUR-OISE
87471037;Bruz;BRZ;48.0286; -1.7518088;35047;BRUZ
87387092;Bueil;BUE;48.9253816; 1.4435896;27119;BUEIL
87592162;Bugeat;BUG;45.6005968; 1.9248147;19033;BUGEAT
87316067;Buire-sur-l'Ancre;BXA;49.9647735; 2.5981885;80151;BUIRE-SUR-L'ANCRE
87342105;Bully - Grenay;BGF;50.44843; 2.73317;62186;BULLY-LES-MINES
87681510;Buno - Gironville;BQV;48.370847; 2.3871153;91121;BUNO-BONNEVAUX
87296244;Busigny;BSY;50.0397236; 3.4461174;59118;BUSIGNY
87491191;Bussac-Forêt;BMR;45.211928; -0.3682457;17074;BUSSAC-FORET
87597708;Busseau sur Creuse;BUC;46.1230257; 2.0229244;23001;AHUN
87592741;Bussière-Galant;BGA;45.6076224; 1.0261372;87027;BUSSIERE-GALANT
87672634;Buzy en Béarn;BUZ;43.1482723; -0.4558864;64157;BUZY
87718122;Byans-sur-Doubs;BYB;47.1185334; 5.8520589;25105;BYANS-SUR-DOUBS
87582684;Cadaujac;CDJ;44.7520628; -0.5376186;33080;CADAUJAC
87444000;Caen;CAE;49.176354; -0.347613;14118;CAEN
87317321;Caffiers;CAF;50.8500679; 1.8120345;62191;CAFFIERS
87756320;Cagnes-sur-Mer;CGM;43.65813; 7.14864;6027;CAGNES-SUR-MER
87613000;Cahors;CAH;44.449275; 1.433325;46042;CAHORS
87317263;Calais;CSV;50.953481; 1.850819;62193;CALAIS
87281071;Calais - Fréthun;FHS;50.901221; 1.810891;62360;FRETHUN
87473546;Callac;CCF;48.4062201; -3.419782;22025;CALLAC
87342543;Calonne-Ricouart;CPC;50.4827036; 2.4812098;62194;CALONNE-RICOUART
87673657;Cambo-les-Bains;CPQ;43.3656242; -1.3966849;64160;CAMBO-LES-BAINS
87345520;Cambrai;CAM;50.17662; 3.24118;59122;CAMBRAI
87783340;Campagnac - Saint-Geniez;CNT;44.4219559; 3.0664008;12047;CAMPAGNAC
87757625;Cannes;CAN;43.553839; 7.019682;6029;CANNES
87757617;Cannes La Bocca;CAB;43.548787; 6.986601;6029;CANNES
87345413;Cantin;CNK;50.3124545; 3.121943;59126;CANTIN
87756395;Cap-d'Ail;KAI;43.7205382; 7.3943362;6032;CAP-D'AIL
87613109;Capdenac;CDC;44.5782458; 2.0779632;12052;CAPDENAC-GARE
87671156;Capvern;CPN;43.1033454; 0.3296393;65127;CAPVERN
87611061;Carbonne;COA;43.298206; 1.212531;31107;CARBONNE
87615286;Carcassonne;CNE;43.218029; 2.351824;11069;CARCASSONNE
87447243;Carentan;CAR;49.302482; -1.244938;50099;CARENTAN
87473504;Carhaix-Plouguer;CRX;48.2780022; -3.5622173;29024;CARHAIX-PLOUGUER
87172353;Carignan;CAG;49.6285736; 5.1684754;8090;CARIGNAN
87615625;Carmaux;CMX;44.048782; 2.152401;81060;CARMAUX
87473561;Carnoët - Locarn;CCN;48.3405242; -3.4908822;22128;LOCARN
87756478;Carnoles;KRL;43.76203; 7.48139;6104;ROQUEBRUNE-CAP-MARTIN
87755371;Carnoules;CNS;43.2974104; 6.1862531;83033;CARNOULES
87765735;Carpentras;IIM;44.0499488; 5.044141;84031;CARPENTRAS
87753566;Carry-le-Rouet;CRR;43.336592; 5.153594;13021;CARRY-LE-ROUET
87208553;Casino Lacroix Laval;CCL;45.7878115; 4.7309383;69250;LA TOUR-DE-SALVAGNY
87281139;Cassel;CRD;50.7875916; 2.4599722;59054;BAVINCHOVE
87751776;Cassis;CSI;43.23406; 5.553055;13022;CASSIS
87611665;Castelnau-d'Estrétefonds;CDF;43.786196; 1.341761;31118;CASTELNAU-D'ESTRETEFONDS
87615039;Castelnaudary;CTY;43.312292; 1.95039;11076;CASTELNAUDARY
87611897;Castelsarrasin;CTN;44.0403503; 1.1143954;82033;CASTELSARRASIN
87584136;Castillon-la-Bataille;CIO;44.856999; -0.04066;33108;CASTILLON-LA-BATAILLE
87615468;Castres;CTR;43.599131; 2.231223;81065;CASTRES
87345587;Cattenières;CTT;50.1280738; 3.3337877;59138;CATTENIERES
87581538;Caudéran Mérignac;CUD;44.84288; -0.6274337;33063;BORDEAUX
87582841;Caudrot;KDT;44.5801152; -0.1452784;33111;CAUDROT
87345561;Caudry;CAU;50.11146; 3.40983;59139;CAUDRY
87473066;Caulnes;CUL;48.2844264; -2.155593;22032;CAULNES
87613356;Caussade;CSD;44.1622668; 1.5336541;82037;CAUSSADE
87765503;Cavaillon;CVN;43.834554; 5.043613;84035;CAVAILLON
87491217;Cavignac;CGC;45.105163; -0.382243;33114;CAVIGNAC
87611079;Cazères;CZG;43.212834; 1.083106;31135;CAZERES
87781542;Ceilhes - Roqueredonde;COQ;43.8122656; 3.1551583;34233;ROQUEREDONDE
87581595;Cenon;CBX;44.8563465; -0.5336487;33119;CENON
87785006;Cerbère;CER;42.4417732; 3.1634033;66048;CERBERE
87543033;Cercottes;CCT;47.9861553; 1.8849813;45062;CERCOTTES
87696492;Cercy-la-Tour;CLT;46.8578816; 3.6452029;58046;CERCY-LA-TOUR
87382655;Cergy le Haut;CJV;49.0484932; 2.0118725;95127;CERGY
87381905;Cergy Préfecture;CYP;49.03639; 2.07982;95127;CERGY
87382499;Cergy Saint-Christophe;CYC;49.0496151; 2.0343975;95127;CERGY
87487280;Cerizay;CEZ;46.8176878; -0.6689931;79062;CERIZAY
87182410;Cernay (Haut-Rhin);CEF;47.802; 7.1737;68063;CERNAY
87276063;Cernay (Val-d'Oise);CEJ;48.98539; 2.2568;95219;ERMONT
87582742;Cérons;CGD;44.632346; -0.340526;33120;CERONS
87723452;Cessieu;CIU;45.5611596; 5.3761179;38064;CESSIEU
87682161;Cesson;CES;48.56563; 2.5938;77067;CESSON
87334490;Cesson-Sévigné;CGT;48.11281; -1.60211;35051;CESSON-SEVIGNE
87743302;Ceyzériat;CZR;46.1834877; 5.3258417;1072;CEYZERIAT
87597112;Chabenet;CBQ;46.6265259; 1.5076773;36161;LE PONT-CHRETIEN-CHABENET
87747212;Châbons;CKN;45.4383566; 5.4281009;38065;CHABONS
87576223;Chabris;CGY;47.2549836; 1.6459424;36034;CHABRIS
87713578;Chagny;CHY;46.907269; 4.749682;71073;CHAGNY
87574111;Chaingy Fourneaux Plage;CFX;47.8770705; 1.782422;45067;CHAINGY
87583690;Chalais;CIC;45.2708327; 0.0435966;16073;CHALAIS
87481390;Challans;CLS;46.843962; -1.871879;85047;CHALLANS
87725002;Chalon-sur-Saône;CSS;46.781612; 4.843454;71076;CHALON-SUR-SAONE
87484204;Chalonnes-sur-Loire;CCE;47.34306; -0.74306;49063;CHALONNES-SUR-LOIRE
87174003;Châlons-en-Champagne;CMP;48.955252; 4.348656;51108;CHALONS-EN-CHAMPAGNE
87734731;Chamalières-sur-Loire;CML;45.2047385; 3.9909202;43049;CHAMALIERES-SUR-LOIRE
87545152;Chamarande;CHK;48.514244; 2.215854;91132;CHAMARANDE
87741009;Chambéry - Challes-les-Eaux;CRL;45.571302; 5.919547;73065;CHAMBERY
87276725;Chambly;CVK;49.16362; 2.24048;60139;CHAMBLY
87775221;Chamborigaud;CBO;44.3002429; 3.9793332;30080;CHAMBORIGAUD
87571463;Chambourg-sur-Indre;CMG;47.1821629; 0.9648363;37049;CHAMBOURG-SUR-INDRE
87721829;Chamelet;CWE;45.9816414; 4.5069346;69039;CHAMELET
87462085;Chamonix Aiguille du Midi;CHW;45.91993; 6.8667152;74056;CHAMONIX-MONT-BLANC
87746784;Chamonix-Mont-Blanc;CHX;45.92277; 6.87363;74056;CHAMONIX-MONT-BLANC
87741231;Chamousset;CSK;45.5575744; 6.2067432;73068;CHAMOUSSET
87276030;Champ de Courses d'Enghien;CEG;48.97975; 2.29189;95598;SOISY-SOUS-MONTMORENCY
87393058;Champ de Mars Tour Eiffel;CPM;48.8551134; 2.2892141;75115;PARIS-15E-ARRONDISSEMENT
87396275;Champagné;CGZ;48.0197118; 0.3352253;72054;CHAMPAGNE
87171926;Champagne-Ardenne TGV;CGV;49.214806; 3.994632;51058;BEZANNES
87276519;Champagne-sur-Oise;CPI;49.13573; 2.24156;95134;CHAMPAGNE-SUR-OISE
87682450;Champagne-sur-Seine;CME;48.406531; 2.799184;77079;CHAMPAGNE-SUR-SEINE
87185348;Champagney;CPY;47.7031399; 6.7012773;70120;CHAMPAGNEY
87715326;Champagnole;CPG;46.7492981; 5.9100314;39097;CHAMPAGNOLE
87352047;Champagnole Paul-Émile Victor;PVT;46.742483; 5.9198128;39097;CHAMPAGNOLE
87115873;Champbenoist - Poigny;CPK;48.545567; 3.287434;77368;POIGNY
87141085;Champigneulles;CHG;48.73499; 6.16913;54115;CHAMPIGNEULLES
87683128;Champigny sur Yonne;CSY;48.3237418; 3.1305718;89074;CHAMPIGNY
87725457;Champlan;CPL;48.70804; 2.28073;91136;CHAMPLAN
87683615;Champs - Saint-Bris;CAI;47.7388182; 3.6034756;89077;CHAMPS-SUR-YONNE
87484352;Champtocé-sur-Loire;CWL;47.4102457; -0.8685747;49068;CHAMPTOCE-SUR-LOIRE
87783530;Chanac;CNA;44.4739786; 3.3454117;48056;ESCLANEDES
87116509;Changis - Saint-Jean;CJN;48.95936; 3.025394;77084;CHANGIS-SUR-MARNE
87381475;Chanteloup-les-Vignes;CVF;48.97095; 2.02771;78138;CHANTELOUP-LES-VIGNES
87481051;Chantenay;CHA;47.1971227; -1.5943634;44109;NANTES
87696302;Chantenay-Saint-Imbert;CXI;46.7283203; 3.1720842;58057;CHANTENAY-SAINT-IMBERT
87276113;Chantilly - Gouvieux;CLY;49.18724; 2.45979;60141;CHANTILLY
87486332;Chantonnay;CTO;46.6898472; -1.0544144;85051;CHANTONNAY
87734343;Chapeauroux;CPX;44.8380008; 3.741923;48139;SAINT-BONNET-DE-MONTAUROUX
87722710;Chaponost;CPT;45.6984889; 4.7643014;69043;CHAPONOST
87276162;Chaponval;CPW;49.0694825; 2.1423781;95039;AUVERS-SUR-OISE
87721530;Charbonnières-les-Bains;CRB;45.782142; 4.735912;69044;CHARBONNIERES-LES-BAINS
87172007;Charleville-Mézières;CMZ;49.767915; 4.724952;8105;CHARLEVILLE-MEZIERES
87144055;Charmes;CHS;48.378483; 6.301537;88090;CHARMES
87381194;Chars;CHR;49.16268; 1.93671;95142;CHARS
87394007;Chartres;CHH;48.4482023; 1.4813128;28085;CHARTRES
87682419;Chartrettes;CJR;48.4870771; 2.6950059;77096;CHARTRETTES
87722561;Chasse-sur-Rhône;CSR;45.58237; 4.794843;38087;CHASSE-SUR-RHONE
87575225;Chasseneuil-du-Poitou;CHN;46.6517702; 0.3730275;86062;CHASSENEUIL-DU-POITOU
87775148;Chasseradès;CJD;44.5539847; 3.8399319;48040;CHASSERADES
87751230;Château-Arnoux-Saint-Auban;SAU;44.0615651; 5.9973734;4049;CHATEAU-ARNOUX-SAINT-AUBAN
87396606;Château-du-Loir;CDL;47.683392; 0.414912;72071;CHATEAU-DU-LOIR
87543066;Château-Gaillard;CGK;48.1416904; 1.9128148;28367;SANTILLY
87595165;Château-l'Évêque;CEQ;45.2445887; 0.6882106;24115;CHATEAU-L'EVEQUE
87574665;Château-Renault;CTI;47.5877961; 0.9015238;37063;CHATEAU-RENAULT
87116582;Château-Thierry;CTH;49.038224; 3.409514;2168;CHATEAU-THIERRY
87471524;Châteaubourg;CTG;48.106361; -1.405159;35068;CHATEAUBOURG
"87590372;87481648";Châteaubriant;CTB;47.7175212; -1.3715152;44036;CHATEAUBRIANT
87545756;Châteaudun;CUN;48.073463; 1.338133;28088;CHATEAUDUN
87474064;Châteaulin;CEM;48.2016033; -4.094308;29026;CHATEAULIN
87592105;Châteauneuf - Bujaleuf;CBF;45.759316; 1.6453027;87105;NEUVIC-ENTIER
87491506;Châteauneuf-sur-Charente;CSC;45.599836; -0.0502;16090;CHATEAUNEUF-SUR-CHARENTE
87576298;Châteauneuf-sur-Cher;CHC;46.8568144; 2.3103826;18058;CHATEAUNEUF-SUR-CHER
87597005;Châteauroux;CTX;46.809737; 1.699536;36044;CHATEAUROUX
87144071;Châtel - Nomexy;CEO;48.307156; 6.387807;88327;NOMEXY
87696856;Châtel-Censoir;CAL;47.5377695; 3.6350455;89091;CHATEL-CENSOIR
87485110;Châtelaillon-Plage;CTL;46.0783303; -1.0908909;17094;CHATELAILLON-PLAGE
87473140;Châtelaudren - Plouagat;CDN;48.5332189; -2.9746782;22206;PLOUAGAT
87575142;Châtellerault;CRT;46.818594; 0.549279;86066;CHATELLERAULT
87721753;Châtillon d'Azergues;CDZ;45.8751815; 4.6451164;3069;CHATILLON
87694778;Chauffailles;CHF;46.2074552; 4.3454278;71120;CHAUFFAILLES
87712679;Chaugey;CFJ;47.0872036; 5.2551914;21356;LOSNE
87313478;Chaulnes;CHL;49.8076201; 2.8011421;80186;CHAULNES
87142000;Chaumont;CHM;48.10976; 5.1346;52121;CHAUMONT
87381228;Chaumont-en-Vexin;CEV;49.26139; 1.87274;60143;CHAUMONT-EN-VEXIN
87296616;Chauny;CNY;49.61119; 3.22354;2173;CHAUNY
87715383;Chaux-des-Crotenay;LXR;46.6545926; 5.9438595;39129;CHAUX-DES-CROTENAY
87393173;Chaville - Vélizy;CHV;48.7998005; 2.1845267;78686;VIROFLAY
87382333;Chaville Rive Droite;CWJ;48.81213; 2.18785;92022;CHAVILLE
87393207;Chaville Rive Gauche;CVI;48.8047497; 2.1882472;92022;CHAVILLE
87721415;Chazay - Marcilly;CZM;45.8729618; 4.7252221;69125;MARCILLY-D'AZERGUES
87746701;Chedde;CED;45.9263464; 6.7197662;74208;PASSY
87694398;Cheilly-lès-Maranges;CJL;46.8924768; 4.6758424;71122;CHEILLY-LES-MARANGES
87116111;Chelles - Gournay;CSG;48.874128; 2.582484;77108;CHELLES
87484246;Chemillé-en-Anjou;CHE;47.217748; -0.731989;49092;CHEMILLE
87683532;Chemilly - Appoigny;CAP;47.8972366; 3.5543936;89096;CHEMILLY-SUR-YONNE
87546317;Chemin d'Antony;CHQ;48.748143; 2.3126207;92002;ANTONY
87141382;Chenevières;CKY;48.5195062; 6.6325613;54125;CHENEVIERES
87574491;Chenonceaux;CQH;47.330554; 1.0661;37073;CHISSEAUX
87444877;Cherbourg-en-Cotentin;CBU;49.633505; -1.621515;50129;CHERBOURG-OCTEVILLE
87721761;Chessy;CZI;45.885545; 4.6222625;69056;CHESSY
87471458;Chevaigné;CWH;48.2089042; -1.6307622;35079;CHEVAIGNE
87175117;Chevillon;CIN;48.5245505; 5.1117843;52123;CHEVILLON
87543041;Chevilly;CVY;48.0266215; 1.8793013;45093;CHEVILLY
87276311;Chevrières;CGB;49.3373064; 2.6828025;60149;CHEVRIERES
87116574;Chézy-sur-Marne;CYZ;48.9919109; 3.3644624;2186;CHEZY-SUR-MARNE
87393637;Chilly-Mazarin;CAZ;48.7004413; 2.3081837;91161;CHILLY-MAZARIN
87741116;Chindrieux;CWX;45.8034376; 5.8468876;73085;CHINDRIEUX
87571687;Chinon;CHI;47.163047; 0.251538;37072;CHINON
87783290;Chirac;CAC;44.5246607; 3.2638181;48049;CHIRAC
87574848;Chissay-en-Touraine;CXT;47.3349004; 1.1333044;41051;CHISSAY-EN-TOURAINE
87342220;Chocques;CRG;50.5382038; 2.564749;62224;CHOCQUES
87545285;Choisy-le-Roi;CLR;48.763974; 2.411102;94022;CHOISY-LE-ROI
87484303;Cholet;CHT;47.065698; -0.869583;49099;CHOLET
87763425;Chorges;CHO;44.5458415; 6.2718887;5040;CHORGES
87574301;Chouzy-sur-Cisse;CZV;47.5203249; 1.247846;41055;CHOUZY-SUR-CISSE
87571836;Cinq-Mars-la-Pile;CQM;47.3452264; 0.4604878;37077;CINQ-MARS-LA-PILE
87611376;Cintegabelle;CBT;43.3054202; 1.5204268;31145;CINTEGABELLE
87313551;Cires-lès-Mello;CIW;49.2717956; 2.3601903;60155;CIRES-LES-MELLO
87694646;Ciry-le-Noble;CYL;46.6040913; 4.2997146;71132;CIRY-LE-NOBLE
87721746;Civrieux-d'Azergues;CZK;45.8591831; 4.7182413;69059;CIVRIEUX-D'AZERGUES
87743344;Cize - Bolozon;CZQ;46.2134803; 5.4540677;1051;BOLOZON
87296178;Clacy - Mons;ONS;49.5439229; 3.5766816;2196;CLACY-ET-THIERRET
87391565;Clamart;CMA;48.813844; 2.2733273;92023;CLAMART
87696807;Clamecy;CLA;47.4666984; 3.5207672;58079;CLAMECY
87747626;Clelles - Mens;CMS;44.8272443; 5.6050622;38113;CLELLES
87411819;Clères;CRS;49.598964; 1.106184;76179;CLERES
87313304;Clermont de l'Oise;CDO;49.38531; 2.41767;60157;CLERMONT
87782607;Clermont La Pardieu;COP;45.766947; 3.134163;63113;CLERMONT-FERRAND
87396895;Clermont La Rotonde;RTD;45.7680954; 3.0909704;63113;CLERMONT-FERRAND
87734004;Clermont-Ferrand;CLF;45.778945; 3.100543;63113;CLERMONT-FERRAND
87184622;Clerval;CVL;47.3966577; 6.4920574;25156;CLERVAL
87381129;Clichy - Levallois;CLL;48.89678; 2.2982;75117;PARIS-17E-ARRONDISSEMENT
87481440;Clisson;CLI;47.086142; -1.286172;44043;CLISSON
87574509;Cloyes-sur-le-Loir;CLO;47.9921032; 1.2433542;28103;CLOYES-SUR-LE-LOIR
87746370;Cluses;CLU;46.061447; 6.582663;74081;CLUSES
87672139;Coarraze - Nay;CZN;43.1818351; -0.2416429;64191;COARRAZE
87473579;Coat Guégan;CQG;48.4803156; -3.2738023;22249;PONT-MELVEZ
87491449;Cognac;COG;45.684682; -0.326112;16102;COGNAC
87393272;Coignières;CGW;48.7437672; 1.920809;78168;COIGNIERES
87784256;Collioure;COX;42.5269437; 3.0782319;66053;COLLIOURE
87721225;Collonges - Fontaines;COF;45.8291102; 4.8466136;69063;COLLONGES-AU-MONT-D'OR
87713321;Collonges-lès-Premières;CLG;47.2212533; 5.2653478;21183;COLLONGES-LES-PREMIERES
87182014;Colmar;CMR;48.073201; 7.346967;68066;COLMAR
87402297;Colmar Mésanges;CXM;48.0860048; 7.3336703;68066;COLMAR
87181222;Colmar Saint-Joseph;CXJ;48.0816399; 7.3453397;68066;COLMAR
87381087;Colombes;CBK;48.92383; 2.25939;92025;COLOMBES
87184556;Colombier-Fontaine;CFT;47.4554849; 6.6890071;25159;COLOMBIER-FONTAINE
87611467;Colomiers;COL;43.603734; 1.334221;31149;COLOMIERS
87611921;Colomiers Lycée International;LYF;43.6163055; 1.3141157;31149;COLOMIERS
87478057;Combourg;CUG;48.41609; -1.72792;35085;COMBOURG
87682146;Combs-la-Ville - Quincy;CBV;48.667179; 2.547798;77122;COMBS-LA-VILLE
87641415;Commentry;CMY;46.295102; 2.739949;3082;COMMENTRY
87175257;Commercy;CCY;48.765749; 5.58861;55122;COMMERCY
87272047;Compans;COJ;48.9915767; 2.6652718;77123;COMPANS
87276691;Compiègne;CPE;49.422005; 2.823679;60382;MARGNY-LES-COMPIEGNE
87387159;Conches-en-Ouche;CCH;48.9623603; 0.9378895;27165;CONCHES-EN-OUCHE
87594382;Condat - Le Lardin;CDT;45.1267128; 1.2267493;24229;LE LARDIN-SAINT-LAZARE
87394288;Condé-sur-Huisne;CDH;48.3834826; 0.8487023;61116;CONDE-SUR-HUISNE
87192666;Conflans - Jarny;CJJ;49.1662895; 5.8681853;54273;JARNY
87381459;Conflans Fin d'Oise;CFD;48.98931; 2.07465;78172;CONFLANS-SAINTE-HONORINE
87381897;Conflans-Sainte-Honorine;CSH;48.99646; 2.09783;78172;CONFLANS-SAINTE-HONORINE
87396218;Conlie;CIE;48.1272909; -0.0113736;72089;CONLIE
87396309;Connerré - Beillé;COB;48.0735; 0.48687;72031;BEILLE
87144287;Contrexéville;CXC;48.1796129; 5.890633;88114;CONTREXEVILLE
87345116;Corbehem;COR;50.3428545; 3.0405375;62240;CORBEHEM
87681007;Corbeil-Essonnes;COE;48.61403; 2.47401;91174;CORBEIL-ESSONNES
87313056;Corbie;CBI;49.9116183; 2.4996846;80212;CORBIE
87696617;Corbigny;CBY;47.254807; 3.6773226;58083;CORBIGNY
87272286;Corcy;CKX;49.2550929; 3.2157221;2216;CORCY
87481820;Cordemais;CDQ;47.3021502; -1.8466771;44045;CORDEMAIS
87613802;Cordes - Vindrac;VDC;44.067189; 1.900229;81320;VINDRAC-ALAYRAC
87713537;Corgoloin;CGO;47.0841982; 4.9171231;21194;CORGOLOIN
87381863;Cormeilles-en-Parisis;CPA;48.96864; 2.19358;95176;CORMEILLES-EN-PARISIS
87571430;Cormery;CEY;47.26254; 0.833953;37083;CORMERY
87594481;Cornil;CIL;45.2151758; 1.6978482;19061;CORNIL
87345132;Coron de Méricourt;CQW;50.4150048; 2.8854084;62570;MERICOURT
87471326;Corps-Nuds;CPS;47.9851669; -1.5754724;35088;CORPS-NUDS
87594119;Corrèze;CZE;45.3294801; 1.8810793;19236;SAINT-PRIEST-DE-GIMEL
87478180;Corseul - Languenan;CFA;48.4960574; -2.1414331;22105;LANGUENAN
87696146;Cosne-Cours-sur-Loire;COS;47.413996; 2.931981;58086;COSNE-COURS-SUR-LOIRE
87171769;Coucy-lès-Eppes;CCP;49.556282; 3.7748209;2218;COUCY-LES-EPPES
87281402;Coudekerque-Branche;CDK;51.0177069; 2.3751425;59155;COUDEKERQUE-BRANCHE
87481804;Couëron;CNQ;47.2220412; -1.7235014;44047;COUERON
87615120;Couffoulens - Leuc;CFW;43.1555365; 2.3161754;11102;COUFFOULENS
87116731;Couilly - Saint-Germain - Quincy;CYQ;48.8830205; 2.854057;77413;SAINT-GERMAIN-SUR-MORIN
87696831;Coulanges-sur-Yonne;CAO;47.5270546; 3.5472388;89129;CRAIN
87116301;Coulommiers;CQU;48.808006; 3.08225;77131;COULOMMIERS
87382200;Courbevoie;KOU;48.89831; 2.24804;92026;COURBEVOIE
87571448;Courcay - Tauxigny;KYY;47.2377076; 0.867867;37085;COURCAY
87342063;Courcelles-le-Comte;COK;50.1694124; 2.7880351;62248;COURCELLES-LE-COMTE
87192211;Courcelles-sur-Nied;CCD;49.0634035; 6.3109926;57156;COURCELLES-SUR-NIED
87171710;Courcy - Brimont;CIM;49.3296003; 4.0134623;51183;COURCY
87781161;Coursan;KOS;43.23369; 3.0510465;11106;COURSAN
87394494;Courtalain - Saint-Pellerin;CWP;48.0735988; 1.1270043;28356;SAINT-PELLERIN
87765180;Courthézon;CTZ;44.0899478; 4.8881802;84039;COURTHEZON
87394221;Courville-sur-Eure;CVB;48.451236; 1.234836;28116;COURVILLE-SUR-EURE
87718270;Cousance;CSJ;46.5353569; 5.3868216;39173;COUSANCE
87447110;Coutances;CCS;49.042928; -1.441726;50147;COUTANCES
87584516;Coutras;COU;45.03661; -0.13169;33138;COUTRAS
87721241;Couzon-au-Mont-d'Or;KMD;45.8486737; 4.8294786;69068;COUZON-AU-MONT-D'OR
87313544;Cramoisy;CYO;49.256625; 2.40489;60173;CRAMOISY
87613232;Cransac;CRZ;44.522951; 2.2718666;12083;CRANSAC
87683649;Cravant - Bazarnes;CBZ;47.6785079; 3.6811741;89030;BAZARNES
87725713;Crêches-sur-Saône;KSA;46.2461762; 4.7840233;71150;CRECHES-SUR-SAONE
87116772;Crécy-la-Chapelle;CLC;48.859391; 2.905748;77142;CRECY-LA-CHAPELLE
87276006;Creil;CLH;49.263757; 2.4692439;60175;CREIL
87723502;Crépieux la Pape;CLP;45.8038348; 4.8922918;69286;RILLIEUX-LA-PAPE
87296152;Crépy - Couvron;CYU;49.6233401; 3.5167165;2238;CREPY
87271593;Crépy-en-Valois;CYV;49.231235; 2.8864694;60176;CREPY-EN-VALOIS
87761783;Crest;CRE;44.7301546; 5.0160968;26108;CREST
87608802;Créteil Pompadour;CTP;48.7715403; 2.4352763;94028;CRETEIL
87286716;Croix - Wasquehal;CRW;50.6785574; 3.1380315;59646;WASQUEHAL
87672600;Croix du Prince;XDP;43.2857104; -0.3791261;64445;PAU
87281055;Croix L'Allumette;CIX;50.6872009; 3.1516591;59163;CROIX
87753491;Croix Sainte;XST;43.4088317; 5.0196445;13056;MARTIGUES
87756338;Cros de Cagnes;CKG;43.660465; 7.167111;6027;CAGNES-SUR-MER
87271874;Crouy;CRU;49.4037093; 3.3569138;2243;CROUY
87116640;Crouy-sur-Ourcq;CQQ;49.091821; 3.063081;77148;CROUY-SUR-OURCQ
87491266;Cubzac-les-Ponts;KBZ;44.9729407; -0.4590937;33143;CUBZAC-LES-PONTS
87755355;Cuers - Pierrefeu;CFU;43.2364281; 6.0856855;83049;CUERS
87481457;Cugand;KUG;47.0582602; -1.253301;85076;CUGAND
87342410;Cuinchy;CUH;50.5219693; 2.7473533;62262;CUINCHY
87142125;Culmont - Chalindrey;CYN;47.8100902; 5.4432217;52155;CULMONT
87741074;Culoz;CUZ;45.843264; 5.778784;1138;CULOZ
87214551;Dachstein;DCN;48.5428546; 7.5330038;67300;MOLSHEIM
87214213;Dambach-la-Ville;DMB;48.3216345; 7.4355565;67084;DAMBACH-LA-VILLE
87615484;Damiatte - Saint-Paul;DSP;43.6566194; 1.9733585;81078;DAMIATTE
87271536;Dammartin - Juilly - Saint-Mard;DAM;49.03219; 2.69887;77420;SAINT-MARD
87575126;Dangé-Saint-Romain;DGE;46.9378397; 0.6087754;86092;DANGE-SAINT-ROMAIN
87700146;Danjoutin;DGI;47.6175; 6.86919;90010;BELFORT
87182253;Dannemarie;DAN;47.6275771; 7.124907;68068;DANNEMARIE
87718312;Dannemarie - Velesmes;DNV;47.2038599; 5.8738348;25195;DANNEMARIE-SUR-CRETE
87317081;Dannes - Camiers;DCQ;50.5759062; 1.614825;62201;CAMIERS
87315044;Daours;DAO;49.899267; 2.4590533;80036;AUBIGNY
87721449;Dardilly Le Jubin;DDJ;45.815143; 4.7613451;69072;DARDILLY
87721480;Dardilly Les Mouilles;DDY;45.7967409; 4.7600288;69072;DARDILLY
87734673;Darsac;DAR;45.14211; 3.7365537;43259;VERNASSAL
87673202;Dax;DAX;43.720472; -1.050301;40088;DAX
87696484;Decize;DZE;46.837362; 3.467274;58095;DECIZE
87613174;Dégagnac;DEG;44.6534974; 1.3400861;46087;DEGAGNAC
87184440;Delle;DEL;47.50593; 7.00962;90033;DELLE
87718429;Deluz;DLZ;47.2925132; 6.199733;25197;DELUZ
87343459;Denain;DEN;50.3345415; 3.388699;59172;DENAIN
87212183;Dettwiller;DEE;48.7518969; 7.4652459;67089;DETTWILLER
87276345;Deuil - Montmagny;DEU;48.97589; 2.33785;95197;DEUIL-LA-BARRE
87172064;Deville;DVI;49.8796028; 4.7072062;8139;DEVILLE
87761841;Die;DIE;44.7582549; 5.3632053;26113;DIE
87215665;Diemeringen;DRI;48.9405; 7.18529;67095;DIEMERINGEN
87415018;Dieppe;DEV;49.921788; 1.081133;76217;DIEPPE
87141812;Dieulouard;DID;48.843367; 6.071489;54157;DIEULOUARD
87611681;Dieupentale;DIP;43.8654687; 1.2760011;82048;DIEUPENTALE
87694695;Digoin;DIG;46.4851604; 3.9876537;71176;DIGOIN
87713040;Dijon;DJV;47.32337; 5.027208;21231;DIJON
87713008;Dijon Porte Neuve;DJP;47.322806; 5.054872;21231;DIJON
87478164;Dinan;DIN;48.456764; -2.053542;22050;DINAN
87478040;Dingé;DNE;48.3507382; -1.6859729;35094;DINGE
87474015;Dirinon;DIR;48.3926343; -4.2855034;29140;LOPERHET
87575191;Dissay;DIF;46.703544; 0.4210161;86095;DISSAY
87444414;Dives-sur-Mer - Cabourg;DVQ;49.2864776; -0.1074996;14225;DIVES-SUR-MER
87337378;Dives-sur-Mer Port Guillaume;DSU;49.2910882; -0.1008455;14225;DIVES-SUR-MER
87478073;Dol-de-Bretagne;DOL;48.54425; -1.750536;35095;DOL-DE-BRETAGNE
87713412;Dole;DLE;47.096084; 5.488105;39198;DOLE
87141119;Dombasle-sur-Meurthe;DBS;48.623275; 6.343478;54159;DOMBASLE-SUR-MEURTHE
87718213;Domblans - Voiteur;DBV;46.7627809; 5.5977462;39199;DOMBLANS
87396200;Domfront-en-Champagne;DFO;48.1076766; 0.0262592;72119;DOMFRONT-EN-CHAMPAGNE
87721738;Dommartin - Lissieu;DLU;45.8397811; 4.7344831;69076;DOMMARTIN
87316109;Dommartin - Remiencourt;DMM;49.7996523; 2.3926625;80246;DOMMARTIN
87276436;Domont;DMO;49.03268; 2.33746;95199;DOMONT
87696427;Dompierre Sept Fons;DOP;46.5263166; 3.6749309;3102;DOMPIERRE-SUR-BESBRE
87295774;Dompierre-sur-Helpe;DMR;50.146144; 3.871144;59177;DOMPIERRE-SUR-HELPE
87286435;Don - Sainghin;DON;50.55176; 2.91458;59524;SAINGHIN-EN-WEPPES
87172239;Donchery;DEY;49.6981267; 4.8747529;8142;DONCHERY
87481721;Donges;DNG;47.3151; -2.07236;44052;DONGES
87142273;Donjeux;DNJ;48.3658544; 5.1482245;52175;DONJEUX
87764290;Donzère;DOE;44.4433646; 4.7046262;26116;DONZERE
87684233;Dordives;DDI;48.1471796; 2.7628787;45127;DORDIVES
87214338;Dorlisheim;DHM;48.5249915; 7.4930546;67101;DORLISHEIM
87171512;Dormans;DOR;49.0791611; 3.641709;51217;DORMANS
87345009;Douai;DOI;50.371677; 3.089986;59178;DOUAI
87545525;Dourdan;DHY;48.533466; 2.009643;91200;DOURDAN
87540179;Dourdan La Forêt;DAQ;48.535314; 1.994908;91200;DOURDAN
87345165;Dourges;DOU;50.43192; 2.98697;62274;DOURGES
87271403;Drancy;DRN;48.93298; 2.45497;93029;DRANCY
87756775;Drap - Cantaron;DRA;43.7599599; 7.3168739;6031;CANTARON
87476770;Drefféac;DRF;47.4817568; -2.0503661;44053;DREFFEAC
87316075;Dreuil-lès-Amiens;DAS;49.91444; 2.23091;80256;DREUIL-LES-AMIENS
87393488;Dreux;DRX;48.7314561; 1.3701604;28134;DREUX
87212357;Drusenheim;DRS;48.7659128; 7.9478463;67106;DRUSENHEIM
87571612;Druye;DRY;47.3070191; 0.5354805;37099;DRUYE
87697342;Dugny - La Courneuve T11;DLC;48.9439; 2.4115;93027;LA COURNEUVE
87281006;Dunkerque;DKQ;51.03047; 2.368961;59183;DUNKERQUE
87214536;Duppigheim;DUP;48.5439674; 7.5868091;67108;DUPPIGHEIM
87641449;Durtol - Nohanent;DUR;45.7947707; 3.048557;63141;DURTOL
87214544;Duttlenheim;DTM;48.5453531; 7.5661529;67080;DACHSTEIN
87281469;Ebblinghem;EBB;50.7306459; 2.409148;59184;EBBLINGHEM
87214106;Ebersheim;EBH;48.3099953; 7.494471;67115;EBERSHEIM
87725895;Échirolles;EHR;45.153022; 5.718943;38151;ECHIROLLES
87710731;École-Valentin;ECV;47.2749834; 5.9944745;25212;ECOLE-VALENTIN
87396564;Écommoy;ECO;47.8246286; 0.2691867;72124;ECOMMOY
87276394;Écouen - Ézanville;ECZ;49.02273; 2.36325;95229;EZANVILLE
87721506;Ecully - Tassin;ECY;45.7657162; 4.7795238;69244;TASSIN-LA-DEMI-LUNE
87594168;Égletons;EGL;45.4023816; 2.0651243;19073;EGLETONS
87545475;Égly;ELY;48.582364; 2.222138;91207;EGLY
87597153;Éguzon-Chantôme;EGU;46.4397694; 1.5521707;36070;EGUZON-CHANTOME
87214239;Eichhoffen;ECF;48.3824829; 7.4495524;67120;EICHHOFFEN
87141200;Einvaux;EIN;48.5034859; 6.3932959;54175;EINVAUX
87411173;Elbeuf - Saint-Aubin;ESA;49.302766; 1.00993;76561;SAINT-AUBIN-LES-ELBEUF
87784207;Elne;ELN;42.5971138; 2.9635851;66065;ELNE
87144436;Éloyes;ELS;48.087067; 6.6001593;88158;ELOYES
87763466;Embrun;EMB;44.567008; 6.496773;5046;EMBRUN
87116046;Émerainville - Pontault-Combault;EMR;48.806034; 2.618004;77169;EMERAINVILLE
87276022;Enghien-les-Bains;ENK;48.97309; 2.30699;95210;ENGHIEN-LES-BAINS
87287276;Ennevelin;ENN;50.5492981; 3.1586612;59197;ENNEVELIN
87765826;Entraigues-sur-la-Sorgue;ENR;44.0054278; 4.9226971;84043;ENTRAIGUES-SUR-LA-SORGUE
87214528;Entzheim Aéroport;ENZ;48.54699; 7.62794;67124;ENTZHEIM
87575357;Épanvilliers;EPI;46.2254951; 0.2357576;86029;BLANZAY
87171553;Épernay;EPR;49.046289; 3.959798;51230;EPERNAY
87394114;Épernon;EPN;48.6052471; 1.6812578;28140;EPERNON
87214221;Epfig;EFG;48.3637643; 7.4504053;67125;EPFIG
87741280;Épierre - Saint-Léger;MEE;45.457027; 6.292521;73109;EPIERRE
87144006;Épinal;ELP;48.178005; 6.441787;88160;EPINAL
87271122;Épinay - Villetaneuse;EPV;48.95838; 2.32865;93031;EPINAY-SUR-SEINE
87697300;Épinay - Villetaneuse T11;EPY;;;93031;EPINAY-SUR-SEINE
87545228;Épinay-sur-Orge;EYO;48.66952; 2.33182;91216;EPINAY-SUR-ORGE
87271148;Épinay-sur-Seine;EYS;48.9542084; 2.3026142;93031;EPINAY-SUR-SEINE
87697292;Épinay-sur-Seine T11;EPS;;;93031;EPINAY-SUR-SEINE
87276147;Épluches;EPL;49.0549329; 2.1225973;95572;SAINT-OUEN-L'AUMONE
87386763;Épône - Mézières;EPO;48.9631225; 1.8085932;78217;EPONE
87381418;Éragny - Neuville;ERA;49.01824; 2.09104;95218;ERAGNY
87590356;Erdre Active;ERD;47.282902; -1.544552;44035;LA CHAPELLE-SUR-ERDRE
"87276055;87534131";Ermont - Eaubonne;ERT;48.98032; 2.27176;95219;ERMONT
87276584;Ermont Halte;ERM;48.9898; 2.26323;95219;ERMONT
87214148;Erstein;EEN;48.4229857; 7.6387869;67130;ERSTEIN
87116327;Esbly;EYA;48.90314191; 2.81059946;77171;ESBLY
87611707;Escalquens;EQA;43.5170958; 1.5422774;31169;ESCALQUENS
87345496;Escaudœuvres;EDV;50.1918249; 3.2754949;59206;ESCAUDOEUVRES
87272096;Esches;ESC;49.2125205; 2.1708125;60218;ESCHES
87281113;Esquelbecq;ESQ;50.8894369; 2.4121536;59210;ESQUELBECQ
87681601;Essonnes Robinson;ESO;48.606095; 2.463701;91174;CORBEIL-ESSONNES
87313387;Estrées-Saint-Denis;ESD;49.4382161; 2.642402;60223;ESTREES-SAINT-DENIS
87722579;Estressin;ESN;45.540285; 4.868273;38544;VIENNE
87571422;Esvres sur Indre;ESV;47.2841016; 0.7816519;37104;ESVRES
87175794;Étain;ETM;49.2074907; 5.6398079;55181;ETAIN
87413328;Étainhus - Saint-Romain;EAH;49.5612151; 0.3310234;76250;ETAINHUS
87718536;Étalans;EAS;47.155884; 6.2706173;25222;ETALANS
87545137;Étampes;ETP;48.436661; 2.159468;91223;ETAMPES
87694141;Étang-sur-Arroux;ETG;46.8679082; 4.1838415;71192;ETANG-SUR-ARROUX
87317065;Étaples - Le Touquet;ETA;50.51686; 1.64231;62318;ETAPLES
87683201;Étigny - Véron;EYV;48.1386835; 3.2904186;89160;ETIGNY
87144642;Étival-Clairefontaine;ETL;48.3671987; 6.8769607;88165;ETIVAL-CLAIREFONTAINE
87545145;Étréchy;ETY;48.493727; 2.194323;91226;ETRECHY
87484154;Étriché - Châteauneuf;EEF;47.6567082; -0.4608993;49132;ETRICHE
87317537;Eu;EUW;50.0541988; 1.416837;76255;EU
87745679;Évian-les-Bains;EVI;46.397915; 6.577457;74119;EVIAN-LES-BAINS
87387001;Évreux Normandie;EVX;49.018748; 1.149629;27229;EVREUX
87478552;Évron;EVN;48.155501; -0.397338;53097;EVRON
87681361;Évry Val de Seine;EVR;48.63442; 2.45209;91228;EVRY
87681387;Évry-Courcouronnes;EVC;48.625507; 2.428581;91228;EVRY
87592121;Eymoutiers Vassivière;EYM;45.7397876; 1.7412237;87064;EYMOUTIERS
87756387;Èze;EZZ;43.7221842; 7.3568031;6059;EZE
87342527;Farbus;FAU;50.357641; 2.8310408;62324;FARBUS
87193516;Farébersviller;FBR;49.1181603; 6.8618926;57207;FAREBERSVILLER
87116277;Faremoutiers - Pommeuse;FMP;48.808494; 2.993109;77371;POMMEUSE
87193524;Farschviller;FWR;49.0878773; 6.9080815;57208;FARSCHVILLER
87576173;Faubourg d'Orléans;FBL;47.3669948; 1.7403794;41194;ROMORANTIN-LANTHENAY
87193359;Faulquemont;FAQ;49.0453391; 6.6039774;57209;FAULQUEMONT
87413542;Fécamp;FEC;49.759277; 0.375287;76259;FECAMP
87212266;Fegersheim - Lipsheim;FHM;48.4905892; 7.6724806;67268;LIPSHEIM
87182626;Fellering;FRG;47.8975893; 6.9871347;68089;FELLERING
87172874;Fépin;FEP;50.0234644; 4.7266156;8166;FEPIN
87684241;Ferrières - Fontenay;FFY;48.0964767; 2.7726332;45148;FONTENAY-SUR-LOING
87313742;Feuquières - Broquiers;FBS;49.6545751; 1.8305169;60233;FEUQUIERES
87726877;Feurs;FEU;45.744156; 4.230573;42094;FEURS
87722538;Feyzin;FEY;45.6658584; 4.8531349;69276;FEYZIN
87613091;Figeac;FIG;44.603515; 2.037355;46102;FIGEAC
87726729;Firminy;FNY;45.391625; 4.28643;42095;FIRMINY
87171330;Fismes;FIO;49.310665; 3.68213;51250;FISMES
87296871;Flavy-le-Martel;FAM;49.7187375; 3.1905076;2315;FLAVY-LE-MARTEL
87181040;Flaxlanden;FXL;47.6986924; 7.3044703;68384;ZILLISHEIM
87448001;Flers;FLS;48.744785; -0.573216;61169;FLERS
87721563;Fleurieux-sur-l'Arbresle;FSL;45.8449944; 4.6603815;69086;FLEURIEUX-SUR-L'ARBRESLE
87725663;Fleurville - Pont-de-Vaux;FLV;46.4509279; 4.8840722;71591;FLEURVILLE
87696633;Flez-Cuzy - Tannay;FEZ;47.3630583; 3.6149926;58286;TANNAY
87576108;Foëcy;FCY;47.1756905; 2.1625062;18096;FOECY
87611616;Foix;FXE;42.969746; 1.607147;9122;FOIX
87447649;Folligny;FOL;48.8299461; -1.4072231;50188;FOLLIGNY
87775379;Fons - Saint-Mamert;FMS;43.9073195; 4.2066687;30112;FONS
87784819;Font-Romeu-Odeillo-Via;FRM;42.4912317; 2.0383917;66124;FONT-ROMEU-ODEILLO-VIA
87682427;Fontaine-le-Port;FPO;48.4871358; 2.7514043;77188;FONTAINE-LE-PORT
87682211;Fontainebleau - Avon;FON;48.416371; 2.72634;77014;AVON
87713586;Fontaines - Mercurey;FAE;46.8512109; 4.7750693;71202;FONTAINES
87393405;Fontenay-le-Fleury;FAF;48.8074032; 2.0404603;78242;FONTENAY-LE-FLEURY
87141051;Fontenoy-sur-Moselle;FBE;48.711721; 5.9803654;54202;FONTENOY-SUR-MOSELLE
87784769;Fontpédrouse;FTB;42.5138062; 2.1886585;66080;FONTPEDROUSE
87193003;Forbach;FOB;49.1892278; 6.9013184;57227;FORBACH
87313833;Formerie;FMR;49.6542178; 1.7229081;60245;FORMERIE
87485326;Fors;FOW;46.2345203; -0.4069449;79125;FORS
87753442;Fos-sur-Mer;FOS;43.428029; 4.974579;13077;PORT-DE-BOUC
87413377;Foucart - Alvimare;FTA;49.608289; 0.5969601;76279;FOUCART
87214734;Fouday;FDY;48.4248874; 7.1874246;67144;FOUDAY
87141036;Foug;FUG;48.6792561; 5.7912761;54205;FOUG
87471201;Fougeray - Langon;FGL;47.7297956; -1.8510921;35145;LANGON
87486316;Fougeré;FUE;46.6653044; -1.2319718;49143;FOUGERE
87313841;Fouilloy;FIY;49.7366368; 1.8260404;60248;FOUILLOY
87342204;Fouquereuil;FQE;50.5255091; 2.6074449;62349;FOUQUEREUIL
87696229;Fourchambault;FLT;47.0189684; 3.0873673;58117;FOURCHAMBAULT
87295048;Fourmies;FMI;50.01541; 4.05357;59249;FOURMIES
"87733675;87366922";Fourqueux - Bel-Air;EBL;48.89494; 2.0705;78551;SAINT-GERMAIN-EN-LAYE
87726737;Fraisses - Unieux;FRU;45.3948228; 4.2610375;42099;FRAISSES
87417444;Franchet d'Esperey;FRP;49.2425356; 4.013869;51454;REIMS
87722702;Francheville;FRW;45.7336473; 4.7693729;69089;FRANCHEVILLE
87276071;Franconville - Le Plessis-Bouchard;FPB;48.99358; 2.23514;95252;FRANCONVILLE
87718304;Franois;FOI;47.2273609; 5.937498;25258;FRANOIS
87715136;Frasne;FRA;46.857596; 6.157767;25259;FRASNE
87113894;Freinville Sevran;FSV;48.926637; 2.519019;93071;SEVRAN
87757500;Fréjus;FRJ;43.432032; 6.732941;83061;FREJUS
87444182;Frénouville - Cagny;FVL;49.1411192; -0.2603256;14287;FRENOUVILLE
87276659;Frépillon;FPN;49.0462; 2.19717;95256;FREPILLON
87296293;Fresnoy-le-Grand;FEG;49.9501964; 3.43268;2334;FRESNOY-LE-GRAND
87574533;Fréteval - Morée;FRE;47.8919172; 1.211813;41095;FRETEVAL
87286641;Fretin;FRI;50.5599254; 3.1495133;59256;FRETIN
87342212;Frévin-Capelle;FVK;50.3473177; 2.6338262;62363;FREVIN-CAPELLE
87592360;Fromental;FRO;46.1715646; 1.4324317;87068;FROMENTAL
87142240;Froncles Buxières;FCB;48.29674; 5.14156;52211;FRONCLES
87741629;Frontenex;TFF;45.6305461; 6.3140556;73121;FRONTENEX
87773556;Frontignan;FRN;43.444934; 3.758689;34108;FRONTIGNAN
87141077;Frouard;FRD;48.75545; 6.14411;54215;FROUARD
87473876;Frynaudour;FYD;48.7275919; -3.1284527;22233;PLOURIVO
87172098;Fumay;FUY;49.986048; 4.6926;8185;FUMAY
87324095;Futuroscope;FTU;46.669918; 0.377209;86062;CHASSENEUIL-DU-POITOU
87765446;Gadagne;GDA;43.9296817; 4.9568087;84036;CHATEAUNEUF-DE-GADAGNE
87113514;Gagny;GNQ;48.883125; 2.527106;93032;GAGNY
87615252;Gaillac;GAI;43.905969; 1.894855;81099;GAILLAC
87415620;Gaillon - Aubevoye;GAA;49.174626; 1.352461;27022;AUBEVOYE
87775130;Gallargues-le-Montueux;GGE;43.716229; 4.1715027;30123;GALLARGUES-LE-MONTUEUX
87497461;Gallieni Cancéropôle;OGI;43.5730877; 1.4195801;31555;TOULOUSE
87694638;Galuzot;GLZ;46.6421069; 4.3300578;71486;SAINT-VALLIER
87212332;Gambsheim;GHM;48.6948699; 7.8791884;67151;GAMBSHEIM
87672618;Gan;GNJ;43.2335932; -0.391462;64230;GAN
87191742;Gandrange - Amnéville;GDG;49.2608222; 6.1358897;57019;AMNEVILLE
87732404;Gannat;GAN;46.0975964; 3.2047514;3118;GANNAT
87313262;Gannes;GNS;49.5723315; 2.4370074;60268;GANNES
87763003;Gap;GAP;44.563693; 6.085638;5061;GAP
87393439;Garancières - La Queue;GAQ;48.8106338; 1.7647546;78265;GARANCIERES
87382259;Garches - Marnes-la-Coquette;GMC;48.83839; 2.18692;92064;SAINT-CLOUD
87691436;Garchizy;GZY;47.0429987; 3.0858769;58121;GARCHIZY
87751420;Gardanne;GDN;43.455992; 5.463332;13041;GARDANNE
87584235;Gardonne;GAO;44.8347538; 0.3319427;24194;GARDONNE
87113860;Gargan;GAF;48.908159; 2.517109;93057;LES PAVILLONS-SOUS-BOIS
87381566;Gargenville;GGV;48.98318; 1.8089;78267;GARGENVILLE
87276196;Garges - Sarcelles;GAJ;48.97663; 2.39078;95268;GARGES-LES-GONESSE
87491225;Gauriaguet;GGT;45.0542936; -0.3992689;33183;GAURIAGUET
87393348;Gazeran;GZA;48.6259183; 1.7718857;78269;GAZERAN
87582403;Gazinet Cestas;GAZ;44.772218; -0.69949;33122;CESTAS
87212258;Geispolsheim;GPM;48.5190515; 7.6843578;67152;GEISPOLSHEIM
87713842;Gemeaux;GMX;47.478542; 5.1293074;21290;GEMEAUX
87694653;Génelard;GEL;46.5812177; 4.2379965;71212;GENELARD
87775791;Générac;GEC;43.7324379; 4.3434742;30128;GENERAC
87713313;Genlis;GLS;47.244579; 5.223406;21292;GENLIS
87271205;Gennevilliers;GEN;48.93368; 2.30699;92036;GENNEVILLIERS
87775213;Génolhac;GNC;44.3471626; 3.9516407;30130;GENOLHAC
87171587;Germaine;GEA;49.1277634; 4.0228976;51266;GERMAINE
87214254;Gertwiller;GWL;48.4133621; 7.4663166;67155;GERTWILLER
87734046;Gerzat;GEZ;45.8335879; 3.1431045;63164;GERZAT
87476309;Gestel;GES;47.8029905; -3.4431341;56063;GESTEL
87713503;Gevrey-Chambertin;GCT;47.2274694; 4.999058;21295;GEVREY-CHAMBERTIN
87684290;Gien;GIE;47.699088; 2.636205;45155;GIEN
87576876;Gièvres;GSN;47.2787925; 1.6678267;41097;GIEVRES
87594325;Gignac - Cressensac;GCC;45.0146074; 1.4831648;46118;GIGNAC
87718577;Gilley;GIL;47.0500626; 6.4925676;25271;GILLEY
87694869;Gilly-sur-Loire;GSL;46.5370137; 3.7821607;71220;GILLY-SUR-LOIRE
87611772;Gimont Cahuzac;GAH;43.6330525; 0.8676246;32147;GIMONT
87582858;Gironde-sur-Dropt;GID;44.583292; -0.0920127;33187;GIRONDE-SUR-DROPT
87381244;Gisors;GIS;49.28512; 1.78455;27284;GISORS
87172130;Givet;GVT;50.14025067; 4.81798595;8190;GIVET
87722405;Givors;GIV;45.584948; 4.766086;69091;GIVORS
87722439;Givors Canal;GIC;45.5957662; 4.7725754;69091;GIVORS
87757641;Golfe Juan Vallauris;GLF;43.566501; 7.073578;6155;VALLAURIS
87747477;Goncelin;GOC;45.341941; 5.974136;38181;GONCELIN
87755397;Gonfaron;GFR;43.3171516; 6.2817644;83067;GONFARON
87481432;Gorges;GOE;47.1001487; -1.3058778;44064;GORGES
87613141;Gourdon;GOV;44.7419445; 1.389237;46127;GOURDON
87473801;Gourland;GUL;48.5609981; -3.1668191;22067;GRACES
87381293;Gournay - Ferrières;GOF;49.4813674; 1.7380891;76260;FERRIERES-EN-BRAY
87276246;Goussainville;GOU;49.0240732; 2.4632464;95280;GOUSSAINVILLE
87214270;Goxwiller;GXW;48.4327551; 7.4787296;67164;GOXWILLER
87212241;Graffenstaden;GRF;48.5324375; 7.6897861;67152;GEISPOLSHEIM
87181131;Graffenwald;GFW;47.7808232; 7.2247908;68375;WITTELSHEIM
87615377;Gragnague;GAG;43.696179; 1.567731;31228;GRAGNAGUE
87613059;Gramat;GRT;44.7734284; 1.7223028;46128;GRAMAT
87681353;Grand Bourg;GBG;48.648004; 2.435939;91521;RIS-ORANGIS
87775254;Grand-Combe la Pise;LGC;44.2098159; 4.0329591;30132;LA GRAND-COMBE
87281311;Grande-Synthe;GSV;51.0026884; 2.3133547;59271;GRANDE-SYNTHE
87184432;Grandvillars;GND;47.53763; 6.9785;90053;GRANDVILLARS
87313734;Grandvilliers;GAR;49.6593779; 1.9384836;60286;GRANDVILLIERS
87447680;Granville;GRV;48.838456; -1.587757;50218;GRANVILLE
87757724;Grasse;GRA;43.653317; 6.925524;6069;GRASSE
87281246;Gravelines;GVL;50.978736; 2.1232852;59273;GRAVELINES
87393645;Gravigny Balizy;GBI;48.6851718; 2.317846;91345;LONGJUMEAU
87747006;Grenoble;GRE;45.191493; 5.714584;38185;GRENOBLE
87747402;Grenoble Universités - Gières;GRS;45.184877; 5.78474;38179;GIERES
87214593;Gresswiller;GEI;48.53334; 7.42468;67168;GRESSWILLER
87746107;Grésy-sur-Aix;GAX;45.7245161; 5.9221751;73128;GRESY-SUR-AIX
87741611;Grésy-sur-Isère;TGG;45.594432; 6.2588584;73129;GRESY-SUR-ISERE
87116012;Gretz-Armainvilliers;GZT;48.74544; 2.728824;77215;GRETZ-ARMAINVILLIERS
87681379;Grigny Centre;GGG;48.65343; 2.395797;91286;GRIGNY
87722298;Grigny le Sablon;LSB;45.6072601; 4.796144;69096;GRIGNY
87611673;Grisolles;GRI;43.8269619; 1.3023292;82075;GRISOLLES
87746248;Groisy - Thorens-Glières;GTC;46.0111205; 6.17568;74137;GROISY
87276592;Gros Noyer Saint-Prix;GNE;48.99682; 2.2588;95219;ERMONT
87276360;Groslay;GNX;48.98462; 2.35358;95288;GROSLAY
87116269;Guérard - La Celle-sur-Morin;GCM;48.810588; 2.954783;77219;GUERARD
87597609;Guéret;GTJ;46.1741863; 1.8793855;23096;GUERET
87673459;Guéthary;GTH;43.4253491; -1.6098615;64249;GUETHARY
87471151;Guichen - Bourg-des-Comptes;GBC;47.9350963; -1.7601845;35126;GUICHEN
87171736;Guignicourt;GUI;49.434862; 3.961334;2360;GUIGNICOURT
87545129;Guillerval;GUE;48.3744455; 2.0598748;91294;GUILLERVAL
87474296;Guimiliau;GMU;48.4852675; -3.9996163;29074;GUIMILIAU
87473207;Guingamp;GGP;48.555659; -3.143343;22070;GUINGAMP
87582619;Gujan-Mestras;GUJ;44.640454; -1.06906;33199;GUJAN-MESTRAS
87213223;Gundershoffen;GUF;48.905261; 7.6535345;67176;GUNDERSHOFFEN
87182386;Gunsbach - Griesbach;GSB;48.0414908; 7.1748407;68109;GRIESBACH-AU-VAL
87182089;Habsheim;HAB;47.737691; 7.417979;68118;HABSHEIM
87297523;Hachette;HAC;50.1582852; 3.7434526;59353;LOCQUIGNOL
87191114;Hagondange;HGD;49.25356; 6.16448;57283;HAGONDANGE
87213058;Haguenau;HAG;48.8134498; 7.7827255;67180;HAGUENAU
87673640;Halsou - Larressore;HLS;43.3781301; -1.4279003;64255;HALSOU
87590331;Haluchère Batignolles;HAD;47.249142; -1.5224436;44109;NANTES
87313494;Ham;HAM;49.73985; 3.07052;80579;MUILLE-VILLETTE
87342261;Ham-en-Artois;HMA;50.5900401; 2.4657764;62407;HAM-EN-ARTOIS
87313114;Hangest-sur-Somme;HAS;49.9822011; 2.0661412;80416;HANGEST-SUR-SOMME
87413302;Harfleur;HAF;49.5136336; 0.1989828;76341;HARFLEUR
87313338;Hargicourt - Pierrepont;HGI;49.7138593; 2.5317673;80419;HARGICOURT
87192724;Hatrize;HZE;49.1934741; 5.9071141;54253;HATRIZE
87286096;Haubourdin;HAU;50.6070495; 2.990153;59286;HAUBOURDIN
87281899;Haussmann Saint-Lazare;HSL;48.87478; 2.32862;75109;PARIS-9E-ARRONDISSEMENT
87313882;Haute Picardie TGV;HPI;49.859182; 2.8319;80002;ABLAINCOURT-PRESSOIR
87295568;Hautmont;HAT;50.25398; 3.91522;59291;HAUTMONT
87191239;Hayange;HAY;49.33053; 6.07245;57306;HAYANGE
87172106;Haybes;HYM;50.0116888; 4.7045378;8222;HAYBES
87286302;Hazebrouck;HZK;50.72501; 2.54129;59295;HAZEBROUCK
87214627;Heiligenberg - Mollkirch;HEG;48.5273135; 7.381426;67299;MOLLKIRCH
87316398;Heilles - Mouchy;HEC;49.340531; 2.2725858;60307;HEILLES
87316059;Heilly;HLY;49.9435191; 2.5396593;80426;HEILLY
87286062;Hellemmes;HEL;50.6226402; 3.1149328;59350;LILLE
87677005;Hendaye;HED;43.353132; -1.781724;64260;HENDAYE
87345157;Hénin-Beaumont;HBE;50.41706; 2.95211;62427;HENIN-BEAUMONT
87476259;Hennebont;HEN;47.7990019; -3.2857467;56083;HENNEBONT
87381889;Herblay;HRY;48.99042; 2.16208;95306;HERBLAY
87313692;Herchies;HEE;49.4879546; 2.0109273;60310;HERCHIES
87184507;Héricourt;HCT;47.5729701; 6.7691977;70285;HERICOURT
87682435;Héricy;HER;48.4424848; 2.7605339;77226;HERICY
87313585;Hermes - Berthecourt;HRB;49.3544055; 2.2416554;60065;BERTHECOURT
87193383;Herny;HYI;49.0036084; 6.4769285;57319;HERNY
87212340;Herrlisheim;HRL;48.7279056; 7.9102594;67194;HERRLISHEIM
87182329;Herrlisheim-près-Colmar;HRH;48.0166417; 7.3206381;68134;HERRLISHEIM-PRES-COLMAR
87317107;Hesdigneul-lès-Boulogne;HES;50.6609475; 1.6669967;62446;HESDIGNEUL-LES-BOULOGNE
87317222;Hesdin;HSD;50.378286; 2.0351881;62447;HESDIN
87191163;Hettange-Grande;HET;49.4076754; 6.1566738;57323;HETTANGE-GRANDE
87295063;Hirson;HIQ;49.91455; 4.08432;2381;HIRSON
87324335;Hirson Écoles;HSO;49.9288321; 4.0861491;2381;HIRSON
87212167;Hochfelden;HCH;48.7554199; 7.572355;67202;HOCHFELDEN
87213413;Hoelschloch;HHH;48.9163252; 7.8314949;67487;SURBOURG
87338517;Hoenheim Tram;HMT;48.6285976; 7.7581387;67204;HOENHEIM
87213686;Hoerdt;HOD;48.7029518; 7.7794059;67205;HOERDT
87213447;Hoffen;HFN;48.9312475; 7.933587;67206;HOFFEN
87193276;Hombourg-Haut;HOH;49.1261085; 6.7742703;57332;HOMBOURG-HAUT
87191692;Homécourt;HOM;49.2182988; 5.9991714;54263;HOMECOURT
87393462;Houdan;HOA;48.7958005; 1.6027371;78310;HOUDAN
87141473;Houdemont;HDT;48.645478; 6.1797255;54265;HOUDEMONT
87386409;Houilles - Carrières-sur-Seine;HAR;48.9199636; 2.1850828;78311;HOUILLES
87444406;Houlgate;HOE;49.3000711; -0.0772276;14338;HOULGATE
87193540;Hundling;HDC;49.1066949; 6.9775394;57340;HUNDLING
87641217;Huriel;HIL;46.3714332; 2.4762569;3128;HURIEL
87755629;Hyères;HYE;43.108867; 6.124223;83069;HYERES
87144089;Igney;IYA;48.2709639; 6.3995463;88247;IGNEY
87215103;Igney - Avricourt;IAZ;48.6467012; 6.8053062;54035;AVRICOURT
87393561;Igny;IGY;48.7399008; 2.2313626;91312;IGNY
87784561;Ille-sur-Têt;ILL;42.6682396; 2.6242863;66088;ILLE-SUR-TET
87182204;Illfurth;IFH;47.6764322; 7.2685712;68152;ILLFURTH
87394437;Illiers-Combray;ILC;48.303937; 1.2448745;28196;ILLIERS-COMBRAY
87696450;Imphy;IPY;46.9333537; 3.2597113;58134;IMPHY
87303875;Ingersheim - Cité Scolaire;ISC;48.08883; 7.29823;68338;TURCKHEIM
87575134;Ingrandes sur Vienne;IGR;46.8746283; 0.5691164;86111;INGRANDES
87484360;Ingrandes-Le Fresne-sur-Loire;IGA;47.4056382; -0.9210198;49160;INGRANDES
87213785;Ingwiller;IGW;48.8723277; 7.477155;67222;INGWILLER
87393033;Invalides;INV;48.8619133; 2.3150151;75107;PARIS-7E-ARRONDISSEMENT
87722249;Irigny Yvours;IRY;45.69002; 4.83229;69100;IRIGNY
87713859;Is-sur-Tille;IST;47.520454; 5.129481;21383;MARCILLY-SUR-TILLE
87342279;Isbergues;BIO;50.61399; 2.46277;62473;ISBERGUES
87116616;Isles - Armentières - Congis;IAC;48.9980994; 3.0072998;77231;ISLES-LES-MELDEUSES
87481622;Issé;ISE;47.6268289; -1.45068;44075;ISSE
87734202;Issoire;ISS;45.543884; 3.25398;63178;ISSOIRE
87381574;Issou - Porcheville;IPO;48.97931; 1.78532;78314;ISSOU
87597062;Issoudun;ISK;46.948763; 1.985834;36088;ISSOUDUN
87393306;Issy Val de Seine;ISP;48.8295555; 2.2635936;92040;ISSY-LES-MOULINEAUX
87393074;Issy-les-Moulineaux;ISY;48.8201001; 2.2593469;92040;ISSY-LES-MOULINEAUX
87753418;Istres;ISR;43.5153953; 4.9804272;13047;ISTRES
87577403;Iteuil;ITL;46.4841223; 0.3168298;86113;ITEUIL
87673665;Itxassou;ITX;43.324043; -1.3956111;64279;ITXASSOU
87545301;Ivry-sur-Seine;IVN;48.814371; 2.39099;94041;IVRY-SUR-SEINE
87345397;Iwuy;IWY;50.2255015; 3.3298634;59322;IWUY
87471334;Janzé;JZE;47.955364; -1.497538;35136;JANZE
87491472;Jarnac;JCB;45.6711292; -0.1777613;16153;GONDEVILLE
87747535;Jarrie - Vizille;JAV;45.0854543; 5.7424487;38200;JARRIE
87141010;Jarville-la-Malgrange;JAR;48.6698381; 6.2024643;54274;JARVILLE-LA-MALGRANGE
87575217;Jaunay-Clan;JAU;46.682044; 0.3816535;86115;JAUNAY-CLAN
87272013;Jaux;JAX;49.3868029; 2.777316;60325;JAUX
87393066;Javel;JVL;48.8462046; 2.2768401;75115;PARIS-15E-ARRONDISSEMENT
87295014;Jeumont;JTJ;50.29606; 4.08645;59324;JEUMONT
87191700;Jœuf;JOF;49.2250083; 6.0177021;54280;JOEUF
87683243;Joigny;JOI;47.973843; 3.393082;89206;JOIGNY
87172031;Joigny-sur-Meuse;JGY;49.8336807; 4.7672389;8237;JOIGNY-SUR-MEUSE
87175091;Joinville;JQI;48.4442977; 5.143503;52250;JOINVILLE
87784710;Joncet;JCT;42.5615245; 2.3111464;66193;SERDINYA
87700153;Joncherey;JYE;47.5262; 6.9988;90056;JONCHEREY
87171314;Jonchery-sur-Vesle;JYV;49.290057; 3.819422;51308;JONCHERY-SUR-VESLE
87491142;Jonzac;JOH;45.4387456; -0.44164;17197;JONZAC
87571885;Joué-lès-Tours;JLT;47.3541741; 0.6675586;37122;JOUE-LES-TOURS
87394155;Jouy;JOY;48.5102582; 1.5573972;28201;JOUY
87393512;Jouy-en-Josas;JAS;48.7650042; 2.1635294;78322;JOUY-EN-JOSAS
87757666;Juan les Pins;JAE;43.570896; 7.11144;6004;ANTIBES
87545244;Juvisy-sur-Orge;JYS;48.68917; 2.38267;91326;JUVISY-SUR-ORGE
87381558;Juziers;JUZ;48.99244; 1.84579;78327;JUZIERS
87193664;Kalhausen;KHS;49.0350585; 7.125352;57355;KALHAUSEN
87159947;Ker Lann;KEL;48.0429857; -1.7398306;35047;BRUZ
87476432;Kerhostin;KHT;47.5369524; -3.1363795;56234;SAINT-PIERRE-QUIBERON
87474213;Kerhuon;KHO;48.4096627; -4.3882136;29235;LE RELECQ-KERHUON
87212324;Kilstett;KIL;48.6793065; 7.8549031;67237;KILSTETT
87191619;Koenigsmacker;KER;49.3965538; 6.2735503;57370;KOENIGSMACKER
87214114;Kogenheim;KEN;48.3389532; 7.5353085;67246;KOGENHEIM
87338525;Krimmeri Meinau;KRI;48.56358; 7.75259;67482;STRASBOURG
87182642;Kruth;KRD;47.92396; 6.9690938;68171;KRUTH
87213660;Kurtzenhouse;KUR;48.741862; 7.8130449;67252;KURTZENHOUSE
87113886;L'Abbaye;ABJ;48.922211; 2.516874;93046;LIVRY-GARGAN
87444638;L'Aigle;LAE;48.766229; 0.620014;61214;L'AIGLE
87592634;L'Aiguille;AGF;45.7783702; 1.2049024;87021;BOSMIE-L'AIGUILLE
87721431;L'Arbresle;LBL;45.833299; 4.618319;69010;L'ARBRESLE
87763557;L'Argentière Les Écrins;LEE;44.7909802; 6.5564162;5006;L'ARGENTIERE-LA-BESSEE
87751529;L'Ariane La Trinité;ATJ;43.7343716; 7.3025298;6149;LA TRINITE
87751602;L'Estaque;LES;43.363628; 5.3213598;13216;MARSEILLE-16E--ARRONDISSEMENT
87726109;L'Etang les Sablons;LEB;48.872302065217156; 2.0688744062680113;78224;L'ETANG-LA-VILLE
87382473;L'Étang-la-Ville;ELW;48.86822; 2.0766932;78224;L'ETANG-LA-VILLE
87486126;L'Herbergement - Les Brouzils;LHB;46.9069172; -1.3712431;85108;L'HERBERGEMENT
87471060;L'Hermitage - Mordelles;LHL;48.123142; -1.8192987;35131;L'HERMITAGE
87718528;L'Hôpital-du-Grosbois;LHO;47.1691016; 6.2130861;25305;L'HOPITAL-DU-GROSBOIS
87276527;L'Isle-Adam - Parmain;IAP;49.11482; 2.20976;95480;PARMAIN
87761239;L'Isle-d'Abeau;ISA;45.607645; 5.21969;38193;L'ISLE-D'ABEAU
87611806;L'Isle-Jourdain;LIJ;43.617185; 1.089829;32160;L'ISLE-JOURDAIN
87765479;L'Isle-sur-la-Sorgue - Fontaine-de-Vaucluse;LFV;43.917393; 5.047615;84054;L'ISLE-SUR-LA-SORGUE
87184572;L'Isle-sur-le-Doubs;ISD;47.4473777; 6.5812614;25315;L'ISLE-SUR-LE-DOUBS
87476275;L'Isthme;LIH;47.54653639699773; -3.1335359717958777;56234;SAINT-PIERRE-QUIBERON
87635581;La Barasse;LBC;43.2858384; 5.4845101;13011;LES BAUX-DE-PROVENCE
87271171;La Barre Ormesson;LBJ;48.96633; 2.31688;95197;DEUIL-LA-BARRE
87481069;La Basse Indre - Saint-Herblain;LBI;47.2040872; -1.6603088;44162;SAINT-HERBLAIN
87342436;La Bassée - Violaines;BII;50.52799; 2.80482;59051;LA BASSEE
87775171;La Bastide - Saint-Laurent-les-Bains;LBS;44.5934829; 3.9042849;48021;LA BASTIDE-PUYLAURENT
87481697;La Baule Les Pins;BFP;47.2835196; -2.3648441;44055;LA BAULE-ESCOUBLAC
87481754;La Baule-Escoublac;LBE;47.28869; -2.389102;44055;LA BAULE-ESCOUBLAC
87481267;La Bernerie-en-Retz;BNX;47.0832616; -2.0341408;44012;LA BERNERIE-EN-RETZ
87487843;La Bohalle;WBH;47.4342356; -0.4000426;49032;LA BOHALLE
87387142;La Bonneville-sur-Iton;BVU;48.9884615; 1.035014;27082;LA BONNEVILLE-SUR-ITON
87276287;La Borne Blanche;BBN;49.126985; 2.5058656;60482;ORRY-LA-VILLE
87751271;La Brillanne - Oraison;LBO;43.9247771; 5.8923199;4034;LA BRILLANNE
87471094;La Brohinière;LBR;48.2134717; -2.110452;35184;MONTAUBAN-DE-BRETAGNE
87382432;La Celle-Saint-Cloud;LCB;48.84259; 2.13797;78126;LA CELLE-SAINT-CLOUD
87486308;La Chaize-le-Vicomte;CZC;46.676779; -1.2820678;85046;LA CHAIZE-LE-VICOMTE
87590364;La Chapelle Aulnay;CVM;47.30859; -1.5415;44035;LA CHAPELLE-SUR-ERDRE
87481564;La Chapelle Centre;EIF;47.2972029; -1.548012;44035;LA CHAPELLE-SUR-ERDRE
87543371;La Chapelle-Saint-Mesmin;LCS;47.8929293; 1.8268193;45075;LA CHAPELLE-SAINT-MESMIN
87571802;La Chapelle-sur-Loire;WSL;47.251227; 0.2184812;37058;LA CHAPELLE-SUR-LOIRE
87696195;La Charité-sur-Loire;LAT;47.179914; 3.023883;58059;LA CHARITE-SUR-LOIRE
87715391;La Chaumusse - Fort-du-Plasne;WFP;46.6048753; 5.9613342;39126;LA CHAUMUSSE
87574251;La Chaussée-Saint-Victor;WSV;47.6127952; 1.3537834;41047;LA CHAUSSEE-SAINT-VICTOR
87751784;La Ciotat - Ceyreste;LTV;43.199593; 5.632647;13028;LA CIOTAT
87694737;La Clayette - Baudemont;CYB;46.2881469; 4.2984195;71022;BAUDEMONT
87592501;La Coquille;LCQ;45.5408509; 0.9744005;24133;LA COQUILLE
87271304;La Courneuve - Aubervilliers;ALC;48.9242; 2.38443;93027;LA COURNEUVE
87583617;La Couronne;LCO;45.604570970062376; 0.1011570895580505;16113;LA COURONNE
87753541;La Couronne Carro;CRQ;43.3398078; 5.0517077;13056;MARTIGUES
87755611;La Crau;LUV;43.1449352; 6.0687663;83047;LA CRAU
87485474;La Crèche;CCK;46.3604181; -0.2962081;79048;LA CRECHE
87481689;La Croix de Méan;XDM;47.300426; -2.1932575;44184;SAINT-NAZAIRE
87382218;La Défense;LDU;48.89308; 2.23763;92062;PUTEAUX
87731430;La Défense Grande Arche RER E;DGA;;;92062;PUTEAUX
87009696;La Douzillère;DZD;47.3388167; 0.6528244;37122;JOUE-LES-TOURS
87313239;La Faloise;FLO;49.696527; 2.3485813;80299;LA FALOISE
87296632;La Fère;FER;49.65802; 3.36981;2304;LA FERE
87681452;La Ferté-Alais;LFA;48.484876; 2.35161;91232;LA FERTE-ALAIS
87396325;La Ferté-Bernard;LFB;48.1864887; 0.639711;72132;LA FERTE-BERNARD
87576082;La Ferté-Imbault;FTV;47.3835442; 1.9580537;41084;LA FERTE-IMBAULT
87116673;La Ferté-Milon;LFM;49.1797269; 3.1207223;2307;LA FERTE-MILON
87543124;La Ferté-Saint-Aubin;LFS;47.720975; 1.93236;45146;LA FERTE-SAINT-AUBIN
87116517;La Ferté-sous-Jouarre;LFJ;48.950741; 3.125577;77183;LA FERTE-SOUS-JOUARRE
87286427;La Fontaine;FOK;50.5661459; 2.9261079;59653;WAVRIN
87474221;La Forest-Landerneau;FOO;48.4263093; -4.3074515;29056;LA FOREST-LANDERNEAU
87726232;La Fouillouse;LFI;45.4977675; 4.3170839;42097;LA FOUILLOUSE
87757740;La Frayère;FYS;43.5581088; 6.9720902;6029;CANNES
87478081;La Fresnais;FSN;48.593655; -1.8432199;35116;LA FRESNAIS
87381871;La Frette - Montigny;FMY;48.98035; 2.18019;95257;LA FRETTE-SUR-SEINE
87755306;La Garde;LGD;43.1187044; 6.0100767;83062;LA GARDE
87386003;La Garenne-Colombes;LGK;48.9093952; 2.2396414;92025;COLOMBES
87584755;La Gorp;GOP;44.9288345; -0.4963844;33003;AMBARES-ET-LAGRAVE
87478099;La Gouesnière - Cancale - Saint-Méloir-des-Ondes;LGO;48.6144207; -1.9058105;35299;SAINT-MELOIR-DES-ONDES
87682476;La Grande-Paroisse;GPA;48.3787751; 2.8971614;77210;LA GRANDE-PAROISSE
87491274;La Grave d'Ambarès;GVA;44.9356421; -0.477021;33003;AMBARES-ET-LAGRAVE
87576470;La Guerche-sur-l'Aubois;GUA;46.9477388; 2.9485731;18108;LA GUERCHE-SUR-L'AUBOIS
87396036;La Guierche;GUH;48.1138773; 0.1931016;72147;LA GUIERCHE
87481416;La Haie-Fouassière;LHE;47.1615899; -1.392195;44070;LA HAIE-FOUASSIERE
87478156;La Hisse;HIZ;48.4961248; -2.0036608;22327;SAINT-SAMSON-SUR-RANCE
87582635;La Hume;HUE;44.639879; -1.116;33199;GUJAN-MESTRAS
87396093;La Hutte Coulombiers;LHU;48.303495; 0.1056788;72097;COULOMBIERS
87485185;La Jarrie;JAJ;46.12045; -1.02347;17194;LA JARRIE
87592337;La Jonchère-Saint-Maurice;JOC;45.9944577; 1.4803853;87079;LA JONCHERE-SAINT-MAURICE
87746842;La Joux;JOO;45.9657075; 6.910179;74056;CHAMONIX-MONT-BLANC
87775247;La Levade;LLE;44.228602; 4.0102736;30132;LA GRAND-COMBE
87394254;La Loupe;LLP;48.4737398; 1.0109416;28214;LA LOUPE
87286187;La Madeleine;LMA;50.6608037; 3.0725804;59368;LA MADELEINE
87691394;La Marche;MKF;47.1396975; 3.0395468;58155;LA MARCHE
87473124;La Méaugon;MHT;48.4996127; -2.8439358;22144;LA MEAUGON
87571513;La Membrolle-sur-Choisille;LRL;47.4313179; 0.6407872;37214;SAINT-CYR-SUR-LOIRE
87487884;La Ménitré;MEQ;47.397422; -0.275818;49201;LA MENITRE
87592808;La Meyze;MYZ;45.6212964; 1.2123135;87096;LA MEYZE
87486423;La Mothe-Achard;LEH;46.6068648; -1.6596359;85152;LA MOTHE-ACHARD
87485508;La Mothe-Saint-Héray;LHY;46.3807592; -0.1298415;79246;SAINTE-EANNE
87545459;La Norville - Saint-Germain-lès-Arpajon;NGE;48.591617; 2.267586;91457;LA NORVILLE
87755314;La Pauline Hyères;LPH;43.1364769; 6.0351027;83062;LA GARDE
87751743;La Penne-sur-Huveaune;PHE;43.2846765; 5.5155698;13070;LA PENNE-SUR-HUVEAUNE
87164798;La Plaine Stade de France - Saint-Denis - Aubervilliers;LPN;48.91839; 2.36257;93066;SAINT-DENIS
87751719;La Pomme;PPO;43.2905165; 5.4413152;13211;MARSEILLE-11E--ARRONDISSEMENT
87592295;La Porcherie;PHR;45.5740586; 1.5383469;87120;LA PORCHERIE
87484337;La Possonnière;LPO;47.3713848; -0.6917009;49247;LA POSSONNIERE
87334508;La Poterie;PTK;48.0923448; -1.6307729;35238;RENNES
87753574;La Redonne Ensuès;RDS;43.33447; 5.1975675;13033;ENSUES-LA-REDONNE
87582866;La Réole;REO;44.579742; -0.03057;33352;LA REOLE
87726703;La Ricamarie;LRM;45.4041516; 4.360686;42183;LA RICAMARIE
87594416;La Rivière de Mansac;LDZ;45.139681; 1.3655086;19124;MANSAC
87715144;La Rivière-Drugeon;RIW;46.8701507; 6.2133331;25493;LA RIVIERE-DRUGEON
87474262;La Roche-Maurice;ROW;48.4740885; -4.2050964;29237;LA ROCHE-MAURICE
87746305;La Roche-sur-Foron;LRF;46.06756; 6.303885;74224;LA ROCHE-SUR-FORON
87486019;La Roche-sur-Yon;LRY;46.67212; -1.435621;85191;LA ROCHE-SUR-YON
87485003;La Rochelle;LRE;46.15269; -1.145305;17300;LA ROCHELLE
87437798;La Rochelle Porte Dauphine;LRA;46.16755; -1.1518412;17300;LA ROCHELLE
87755264;La Seyne - Six-Fours;LSM;43.116959; 5.876966;83126;LA SEYNE-SUR-MER
87592378;La Souterraine;LST;46.239792; 1.492151;23176;LA SOUTERRAINE
87396366;La Suze-sur-Sarthe;LSZ;47.8919891; 0.0266367;72346;LA SUZE-SUR-SARTHE
87394403;La Taye;LTA;48.4077566; 1.3734019;28337;SAINT-GEORGES-SUR-EURE
87582643;La Teste-de-Buch;TTE;44.636924; -1.14295;33529;LA TESTE-DE-BUCH
87721548;La Tour-de-Salvagny;TSW;45.7998818; 4.7164921;69250;LA TOUR-DE-SALVAGNY
87723478;La Tour-du-Pin;LTP;45.560277; 5.450092;38509;LA TOUR-DU-PIN
87575183;La Tricherie;LTR;46.7288206; 0.4412021;86019;BEAUMONT
87756767;La Trinité Victor;TVR;43.7427854; 7.3114604;6149;LA TRINITE
87723577;La Valbonne;VAO;45.849225; 5.124911;1032;BELIGNEUX
87723395;La Verpillière;VEI;45.6276; 5.150866;38537;LA VERPILLIERE
87393256;La Verrière;VYL;48.7556954; 1.943674;78644;LA VERRIERE
87641191;La Ville Gozet;GOZ;46.3497686; 2.5918028;3185;MONTLUCON
87611459;La Ville-Dieu-du-Temple;LIX;44.0355186; 1.2149646;82096;LA VILLE-DIEU-DU-TEMPLE
87394171;La Villette Saint-Prest;VTP;48.4827197; 1.5228734;28358;SAINT-PREST
87212316;La Wantzenau;LWL;48.6651895; 7.8247832;67519;LA WANTZENAU
87612002;Labège Innopole;FRV;43.5473613; 1.5129784;31254;LABEGE
87612028;Labège Village;LEJ;43.5305367; 1.5329207;31254;LABEGE
87673293;Labenne;LBN;43.5870509; -1.4288712;40133;LABENNE
87715219;Labergement-Sainte-Marie;GYR;46.77632; 6.28011;25320;LABERGEMENT-SAINTE-MARIE
87313676;Laboissière - Le Déluge;DEJ;49.2885368; 2.1361486;60330;LABOISSIERE-EN-THELLE
87582551;Labouheyre;LBH;44.2106292; -0.9209296;40134;LABOUHEYRE
87615526;Labruguière;LBG;43.5425692; 2.2594728;81120;LABRUGUIERE
87645150;Lacapelle-Viescamp;WCV;44.9202424; 2.2654689;15088;LACAPELLE-VIESCAMP
87592147;Lacelle;WCL;45.6412701; 1.8264798;19095;LACELLE
87731828;Lachaud Curmilhac;LDQ;45.1228045; 3.6104913;43013;VISSAC-AUTEYRAC
87611434;Lacourtensourt;LNT;43.6638838; 1.4138687;31555;TOULOUSE
87592733;Lafarge;LAF;45.6338338; 1.130859;87150;SAINT-HILAIRE-LES-PLACES
87116319;Lagny - Thorigny;LGY;48.88218325; 2.70404228;77464;THORIGNY-SUR-MARNE
87613471;Laguépie;LPB;44.1455256; 1.9692195;82088;LAGUEPIE
87172072;Laifour;LFU;49.911256; 4.6923484;8242;LAIFOUR
87396556;Laigné - Saint-Gervais;LSG;47.8740074; 0.2172097;72287;SAINT-GERVAIS-EN-BELIN
87276204;Laigneville;LAI;49.29276; 2.44894;60342;LAIGNEVILLE
87471144;Laillé;LLJ;47.9717527; -1.7495654;35126;GUICHEN
87718437;Laissey;LJY;47.298723; 6.23304;25323;LAISSEY
87613323;Lalbenque - Fontanes;LNQ;44.3332389; 1.5116628;46109;FONTANES
87584441;Lalinde;LLK;44.8396152; 0.7427811;24223;LALINDE
87611855;Lamagistère;LWG;44.1267231; 0.8255002;82089;LAMAGISTERE
87753731;Lamanon;LMN;43.6999662; 5.0913333;13049;LAMANON
87473108;Lamballe;LAM;48.46606; -2.511546;22093;LAMBALLE
87584243;Lamonzie-Saint-Martin;LZE;44.8450247; 0.3854609;24225;LAMONZIE-SAINT-MARTIN
87582882;Lamothe-Landerron;LOH;44.5628433; 0.0451406;33221;LAMOTHE-LANDERRON
87584151;Lamothe-Montravel;LMH;44.8537384; 0.0215683;24226;LAMOTHE-MONTRAVEL
87543140;Lamotte-Beuvron;LBQ;47.593898; 2.022499;41106;LAMOTTE-BEUVRON
87721860;Lamure-sur-Azergues;LAZ;46.0610834; 4.4921137;69107;LAMURE-SUR-AZERGUES
87473850;Lancerf;LNF;48.761873; -3.1181396;22233;PLOURIVO
87417501;Lancey;LCW;45.2344784; 5.8809758;38547;VILLARD-BONNOT
87286575;Landas;LDD;50.4687775; 3.290568;59330;LANDAS
87476226;Landaul - Mendon;LDJ;47.7359877; -3.0860172;56096;LANDAUL
87473264;Landébia;LDB;48.5074212; -2.3313716;22096;LANDEBIA
87474239;Landerneau;LDO;48.453572; -4.256528;29103;LANDERNEAU
87476234;Landévant;LDM;47.759578; -3.1251313;56097;LANDEVANT
87474270;Landivisiau;LDI;48.496002; -4.082181;29105;LANDIVISIAU
87295642;Landrecies;LNR;50.1283138; 3.681997;59331;LANDRECIES
87741777;Landry;LAY;45.5741713; 6.7338182;73142;LANDRY
87141093;Laneuveville-devant-Nancy;LNV;48.65564; 6.22792;54300;LANEUVEVILLE-DEVANT-NANCY
87734319;Langeac;LNG;45.10125; 3.490672;43112;LANGEAC
87571828;Langeais;LGS;47.324114; 0.410557;37123;LANGEAIS
87734350;Langogne;LGG;44.732776; 3.8573047;48080;LANGOGNE
87582775;Langon;LGE;44.555448; -0.25554;33227;LANGON
87142091;Langres;LAG;47.8769474; 5.3444064;52269;LANGRES
87671123;Lannemezan;LNZ;43.114273; 0.387367;65258;LANNEMEZAN
87473223;Lannion;LNI;48.727638; -3.460353;22113;LANNION
87712323;Lantenay;LWP;47.3351085; 4.860963;21339;LANTENAY
87296012;Laon;LAO;49.57061; 3.62443;2408;LAON
87641043;Lapeyrouse;LPY;46.2267825; 2.893393;63187;LAPEYROUSE
87763755;Laragne-Montéglin;LRN;44.3164984; 5.8189832;5070;LARAGNE-MONTEGLIN
87611939;Lardenne;KPL;43.5966262; 1.3839252;31555;TOULOUSE
87545160;Lardy;LYO;48.520639; 2.255739;91330;LARDY
87683268;Laroche - Migennes;LAR;47.960998; 3.513191;89257;MIGENNES
87586412;Laroque-Timbaut;LRQ;44.2875163; 0.7497189;47138;LAROQUE-TIMBAUT
87645135;Laroquebrou;LQB;44.9641658; 2.1929167;15094;LAROQUEBROU
87575498;Lathus-Saint-Rémy;LHX;46.3380917; 0.965009;86120;LATHUS-SAINT-REMY
87611483;Latour-de-Carol - Enveitg;LTL;42.4590464; 1.9045027;66066;ENVEITG
87212464;Lauterbourg;LTG;48.9676973; 8.1826817;67261;LAUTERBOURG
87478404;Laval;LAL;48.076206; -0.760907;53130;LAVAL
87594796;Laval-de-Cère;LLC;44.9512118; 1.9317113;46163;LAVAL-DE-CERE
87597740;Lavaufranche;LVF;46.3212869; 2.2700972;23104;LAVAUFRANCHE
87615476;Lavaur;LVR;43.703479; 1.813146;81140;LAVAUR
87381202;Lavilletertre;VWT;49.2024666; 1.9206361;60356;LAVILLETERTRE
87734707;Lavoûte-sur-Loire;LVL;45.1214503; 3.9054101;43119;LAVOUTE-SUR-LOIRE
87271478;Le Blanc-Mesnil;BAM;48.93248; 2.47747;93029;DRANCY
87757757;Le Bosquet;BQJ;43.5515285; 6.9816599;6029;CANNES
87271395;Le Bourget;LBT;48.93096; 2.42571;93029;DRANCY
87697359;Le Bourget T11;BOT;;;93029;DRANCY
87738096;Le Bouscat - Saint-Germaine;LGM;44.870926495346204; -0.614049444932229;33069;LE BOUSCAT
87781583;Le Bousquet-d'Orb;LBD;43.6912097; 3.1689379;34038;LE BOUSQUET-D'ORB
87681395;Le Bras de Fer;BFX;48.623287; 2.450625;91228;EVRY
87734228;Le Breuil-sur-Couze;BCZ;45.4670838; 3.2621478;63052;LE BREUIL-SUR-COUZE
87783548;Le Bruel;BWQ;44.4813286; 3.358325;48056;ESCLANEDES
87746883;Le Buet;BVQ;46.018805; 6.9204119;74290;VALLORCINE
87595744;Le Bugue;BDG;44.9056892; 0.942795;24067;LE BUGUE
87595751;Le Buisson-de-Cadouin;LBU;44.84723; 0.9081756;24068;LE BUISSON-DE-CADOUIN
87594614;Le Burg;WBW;45.2157957; 1.4298135;19278;VARETZ
87775825;Le Cailar;LCI;43.6834141; 4.2354236;30059;LE CAILAR
87295220;Le Cateau-Cambrésis;LCA;50.0914606; 3.5400454;59136;LE CATEAU-CAMBRESIS
87481168;Le Cellier;LEI;47.3135164; -1.3506694;44028;LE CELLIER
87734160;Le Cendre - Orcet;CZJ;45.723796; 3.188666;63069;LE CENDRE
87726711;Le Chambon-Feugerolles;LCF;45.3947427; 4.3223823;42044;LE CHAMBON-FEUGEROLLES
87113522;Le Chénay Gagny;CGG;48.877129; 2.552692;93032;GAGNY
87726828;Le Coteau;LCU;46.023984; 4.086248;42071;LE COTEAU
87681635;Le Coudray-Montceaux;CEX;48.5661679; 2.4924649;91179;LE COUDRAY-MONTCEAUX
87694000;Le Creusot;LCR;46.807815; 4.4304403;71153;LE CREUSOT
87694109;Le Creusot - Montceau-les-Mines - Montchanin TGV;LCM;46.765343; 4.499513;71187;ECUISSES
87481788;Le Croisic;LCC;47.289836; -2.507442;44049;LE CROISIC
87592543;Le Dorat;LDT;46.2110908; 1.0793364;87059;LE DORAT
87757542;Le Dramont;DRW;43.4178193; 6.8442467;83118;SAINT-RAPHAEL
87611046;Le Fauga;FGA;43.4043288; 1.2827183;31181;LE FAUGA
87478743;Le Genest-Saint-Isle;GST;48.0967372; -0.8858084;53103;LE GENEST-SAINT-ISLE
87444323;Le Grand Jardin;GDJ;49.1505827; 0.2271143;14366;LISIEUX
87747220;Le Grand-Lemps;LGL;45.3966261; 5.4231117;38182;LE GRAND-LEMPS
87775866;Le Grau-du-Roi;LGR;43.5371273; 4.140338;30133;LE GRAU-DU-ROI
87316687;Le Haut Banc;HTB;50.8163364; 1.7722209;62329;FERQUES
87413013;Le Havre;LHA;49.492996; 0.125677;76351;LE HAVRE
87645473;Le Lioran;LLN;45.0905458; 2.7533365;15101;LAVEISSIERE
87755405;Le Luc - Le Cannet;LEC;43.3902379; 6.3430972;83031;LE CANNET-DES-MAURES
87396002;Le Mans;LEN;47.995689; 0.192578;72181;LE MANS
87743872;Le Mans Hôpital-Université;LMV;48.014871; 0.17445113;72181;LE MANS
87682179;Le Mée-sur-Seine;WEE;48.540086; 2.624116;77285;LE MEE-SUR-SEINE
87721522;Le Méridien La Ferrière;WER;45.7684995; 4.7484432;69244;TASSIN-LA-DEMI-LUNE
87276733;Le Meux - La Croix-Saint-Ouen;LXS;49.3594029; 2.7532645;60402;LE MEUX
87444083;Le Molay-Littry;MLW;49.2493263; -0.8809741;14370;LE MOLAY-LITTRY
87783308;Le Monastier-Pin-Moriès;LMR;44.5089682; 3.252057;48099;LE MONASTIER-PIN-MORIES
87481424;Le Pallet;PLL;47.143831; -1.346898;44117;LE PALLET
87722678;Le Péage-de-Roussillon;PGR;45.371797; 4.795402;38298;LE PEAGE-DE-ROUSSILLON
87473553;Le Pénity;PYV;48.3646275; -3.4763815;22052;DUAULT
87393298;Le Perray-en-Yvelines;LPE;48.6933406; 1.856057;78486;LE PERRAY-EN-YVELINES
87681627;Le Plessis Chenet;IBM;48.5735652; 2.479586;91179;LE COUDRAY-MONTCEAUX
87271551;Le Plessis-Belleville;PLB;49.0959033; 2.7448073;60500;LE PLESSIS-BELLEVILLE
87343210;Le Poirier Université;LEP;50.33006; 3.50273;59603;TRITH-SAINT-LEGER
87741470;Le Pont-de-Beauvoisin;POB;45.524636; 5.680772;38315;LE PONT-DE-BEAUVOISIN
87747519;Le Pont-de-Claix;PDC;45.1251549; 5.6998669;38317;LE PONT-DE-CLAIX
87481762;Le Pouliguen;LIG;47.2825404; -2.4331446;44135;LE POULIGUEN
87734699;Le Puy-en-Velay;LPU;45.042866; 3.892421;43157;LE PUY-EN-VELAY
87295857;Le Quesnoy;LQY;50.25021; 3.64552;59481;LE QUESNOY
87113472;Le Raincy - Villemomble - Montfermeil;RVM;48.889325; 2.512062;93062;LE RAINCY
87645192;Le Rouget;LRG;44.8565391; 2.2355043;15268;LE ROUGET
87784512;Le Soler;LSL;42.6787626; 2.7930798;66195;LE SOLER
87381095;Le Stade;LSD;48.93093; 2.26056;92025;COLOMBES
87582601;Le Teich;TEH;44.632507; -1.025556;33527;LE TEICH
87396333;Le Theil - La Rouge;LFQ;48.2672964; 0.6944581;61356;LA ROUGE
87471342;Le Theil-de-Bretagne;TIB;47.918742; -1.4319925;35333;LE THEIL-DE-BRETAGNE
87765453;Le Thor;LTH;43.9265047; 4.9962663;84132;LE THOR
87353573;Le Toec;TOE;43.5956037; 1.4014496;31555;TOULOUSE
87757575;Le Trayas;TYA;43.4746639; 6.9243444;83118;SAINT-RAPHAEL
87317529;Le Tréport - Mers-les-Bains;LTM;50.0628592; 1.3763738;76711;LE TREPORT
87382366;Le Val d'Or;VDO;48.85645; 2.21636;92064;SAINT-CLOUD
87581389;Le Verdon-sur-Mer;LVD;45.5492065; -1.0650925;33544;LE VERDON-SUR-MER
87611350;Le Vernet d'Ariège;VVT;43.1894138; 1.6116214;9331;LE VERNET
87681247;Le Vert de Maisons;VDP;48.78934; 2.43148;94002;ALFORTVILLE
87484139;Le Vieux Briollay;VXB;47.5739696; -0.4829396;49048;BRIOLLAY
87345223;Leforest;LEF;50.4278; 3.05977;62497;LEFOREST
87345025;Lens;LNS;50.426818; 2.828254;62498;LENS
87721555;Lentilly;LTY;45.82163; 4.667103;69112;LENTILLY
87566919;Lentilly Charpenay;CNJ;45.8165247; 4.6824009;69112;LENTILLY
87741439;Lépin-le-Lac - La Bauche;LPL;45.541519; 5.7649834;73145;LEPIN-LE-LAC
87175240;Lérouville;LEL;48.7972181; 5.5387053;55288;LEROUVILLE
87741496;Les Abrets - Fitilieu;FII;45.5421091; 5.5754876;38165;FITILIEU
87755447;Les Arcs - Draguignan;LAC;43.455524; 6.482498;83004;LES ARCS
87492108;Les Ardoines;LAD;48.782945; 2.409046;94081;VITRY-SUR-SEINE
87543017;Les Aubrais;LAB;47.926801; 1.906629;45147;FLEURY-LES-AUBRAIS
87592048;Les Bardys;LBY;45.9046873; 1.377389;87178;SAINT-PRIEST-TAURION
87297515;Les Bons Pères;BJP;50.2798638; 4.010967;59514;ROUSIES
87746768;Les Bossons;BHS;45.9067455; 6.8391969;74056;CHAMONIX-MONT-BLANC
87113779;Les Boullereaux Champigny;BXP;48.824926; 2.511884;94017;CHAMPIGNY-SUR-MARNE
87611574;Les Cabannes;CNB;42.7862854; 1.6862985;9070;LES CABANNES
87781559;Les Cabrils;KBI;43.779707; 3.1860831;34233;ROQUEREDONDE
87328021;Les Cauquillous;CQO;43.7340198; 1.7546798;81140;LAVAUR
87386664;Les Clairières de Verneuil;KVE;48.9922407; 1.955265;78642;VERNEUIL-SUR-SEINE
87113845;Les Coquetiers;LQT;48.89244; 2.499415;93077;VILLEMOMBLE
87677104;Les Deux Jumeaux;HPZ;43.3699568; -1.7643532;64260;HENDAYE
87723718;Les Échets;ECH;45.8746675; 4.9108215;1249;MIRIBEL
87584532;Les Églisottes-et-Chalaures;EGE;45.0942299; -0.0437576;33154;LES EGLISOTTES-ET-CHALAURES
87393280;Les Essarts-le-Roi;LSI;48.7217171; 1.8904047;78220;LES ESSARTS-LE-ROI
87595736;Les Eyzies-de-Tayac-Sireuil;EYZ;44.9411916; 1.0081942;24172;LES EYZIES-DE-TAYAC-SIREUIL
87721704;Les Flachères;FLD;45.7774345; 4.7541523;69044;CHARBONNIERES-LES-BAINS
87317305;Les Fontinettes;LTS;50.940831; 1.8496343;62193;CALAIS
87272146;Les Grésillons;LEG;48.92007; 2.31441;92036;GENNEVILLIERS
87746743;Les Houches;HOU;45.8935639; 6.796924;74143;LES HOUCHES
87471516;Les Lacs;LCK;48.1094359; -1.3208165;35252;SAINT-AUBIN-DES-LANDES
87713115;Les Laumes Alésia;LLA;47.543054; 4.462602;21663;VENAREY-LES-LAUMES
87473587;Les Mais;LQW;48.4262577; -3.3828609;22025;CALLAC
87734178;Les Martres-de-Veyre;MVY;45.688155; 3.193228;63214;LES MARTRES-DE-VEYRE
87746818;Les Moussoux;MQK;45.9166347; 6.8589899;74056;CHAMONIX-MONT-BLANC
87481259;Les Moutiers-en-Retz;MVB;47.0618983; -2.0009628;44106;LES MOUTIERS-EN-RETZ
87386680;Les Mureaux;LMU;48.9927897; 1.9129871;78440;LES MUREAUX
87276238;Les Noues;LNX;49.03234; 2.47633;95280;GOUSSAINVILLE
87575118;Les Ormes;ORE;46.9718269; 0.6079476;86183;LES ORMES
87113852;Les Pavillons-sous-Bois;PVB;48.902418; 2.511781;93057;LES PAVILLONS-SOUS-BOIS
87746776;Les Pélerins;PKN;45.9125671; 6.8472858;74056;CHAMONIX-MONT-BLANC
87691600;Les Perrières;PEF;47.0055213; 3.1467144;58303;VARENNES-VAUZELLES
87710921;Les Portes de Saint-Cyr;LPC;48.8062; 2.07716;78646;VERSAILLES
87746826;Les Praz de Chamonix;PZI;45.9394594; 6.888753;74056;CHAMONIX-MONT-BLANC
87576181;Les Quatre Roues;QRS;47.3325521; 1.7025282;41185;PRUNIERS-EN-SOLOGNE
87594564;Les Quatre-Routes-du-Lot;LQR;44.9974864; 1.6439067;46232;LES QUATRE-ROUTES-DU-LOT
87353581;Les Ramassiers;RAM;43.6024594; 1.3528032;31555;TOULOUSE
87487876;Les Rosiers-sur-Loire;ROR;47.3625386; -0.2205371;49261;LES ROSIERS-SUR-LOIRE
87476267;Les Sables Blancs;LSA;47.57518; -3.13201;56168;PLOUHARNEL
87486449;Les Sables-d'Olonne;LSO;46.499917; -1.78105;85194;LES SABLES-D'OLONNE
87783514;Les Salelles;SQL;44.4832687; 3.2804008;48185;LES SALELLES
87546226;Les Saules;LSW;48.7454924; 2.417366;94054;ORLY
87746834;Les Tines;TNJ;45.9505693; 6.8991603;74056;CHAMONIX-MONT-BLANC
87641373;Les Trillers;TIS;46.4147461; 2.6001018;3301;VAUX
87386300;Les Vallées;LWA;48.913408; 2.257909;92009;BOIS-COLOMBES
87595702;Les Versannes;VSJ;45.088775; 0.8574682;24156;LA DOUZE
87113803;Les Yvris Noisy-le-Grand;LYV;48.823182; 2.579828;93051;NOISY-LE-GRAND
87581314;Lesparre-Médoc;LSE;45.3035166; -0.9454015;33240;LESPARRE-MEDOC
87286849;Lesquin;LEQ;50.59068; 3.11771;59343;LESQUIN
87781088;Leucate La Franqui;LEU;42.9327725; 3.0128555;11202;LEUCATE
87295790;Leval;LLW;50.1845311; 3.8366811;59344;LEVAL
87613489;Lexos;LEX;44.1423958; 1.8851014;82187;VAREN
87287102;Lezennes;LZS;50.6205699; 3.0986481;59350;LILLE
87615112;Lézignan-Corbières;LZA;43.1999609; 2.7699635;11203;LEZIGNAN-CORBIERES
87734442;Lezoux;LEZ;45.8212175; 3.385986;63195;LEZOUX
87276212;Liancourt - Rantigny;LIA;49.32471; 2.44532;60524;RANTIGNY
87381210;Liancourt-Saint-Pierre;LQK;49.2204964; 1.905543;60361;LIANCOURT-SAINT-PIERRE
87345256;Libercourt;LIK;50.48025; 3.00867;62907;LIBERCOURT
87584052;Libourne;LIB;44.915888; -0.236344;33243;LIBOURNE
87718130;Liesle;LJL;47.0587683; 5.8208121;25336;LIESLE
87682153;Lieusaint - Moissy;LIU;48.628305; 2.568935;77251;LIEUSAINT
87345041;Liévin;LVW;50.434139; 2.7716316;62510;LIEVIN
87575274;Ligugé;LGJ;46.5203091; 0.3331733;86133;LIGUGE
87109306;Lille CHR;ECR;50.61432; 3.03432;59350;LILLE
87223263;Lille Europe;LEW;50.639224; 3.075796;59350;LILLE
87286005;Lille Flandres;LLF;50.636577; 3.06987;59350;LILLE
87287250;Lille Porte de Douai;PED;50.6119054; 3.075837;59350;LILLE
87342238;Lillers;LLL;50.56163; 2.47903;62516;LILLERS
87381582;Limay;LSH;48.9841; 1.74731;78335;LIMAY
87574335;Limeray;LIZ;47.4502088; 1.0499661;37131;LIMERAY
87212274;Limersheim;LHJ;48.4617328; 7.6603581;67200;HIPSHEIM
87592006;Limoges Bénédictins;LIM;45.836089; 1.267356;87085;LIMOGES
87592022;Limoges Montjovis;LMJ;45.8384117; 1.2514147;87085;LIMOGES
87615161;Limoux;LMX;43.0563831; 2.2228288;11206;LIMOUX
87598755;Limoux Flassian;LMF;43.0684511; 2.2182832;11206;LIMOUX
87214502;Lingolsheim;LGH;48.5594092; 7.6781143;67267;LINGOLSHEIM
87733683;Lisière Pereire;SGM;48.9032098; 2.0733132;78551;SAINT-GERMAIN-EN-LAYE
87444265;Lisieux;LIS;49.138299; 0.231143;14366;LISIEUX
87615310;Lisle-sur-Tarn;LSU;43.85639; 1.80823;81145;LISLE-SUR-TARN
87447219;Lison;LSN;49.226834; -1.050339;14367;LISON
87141069;Liverdun;LDN;48.7493158; 6.0617374;54318;LIVERDUN
87761247;Livron-sur-Drôme;LIV;44.7796035; 4.8305412;26165;LIVRON-SUR-DROME
87682401;Livry-sur-Seine;LYQ;48.5104579; 2.6788796;77255;LIVRY-SUR-SEINE
87116632;Lizy-sur-Ourcq;LZO;49.021929; 3.031718;77257;LIZY-SUR-OURCQ
87571471;Loches;LOY;47.130464; 1.000467;37132;LOCHES
87182345;Logelbach;LOJ;48.087299; 7.3206082;68374;WINTZENHEIM
87345231;Loison-sous-Lens;LOO;50.4401891; 2.8592403;62523;LOISON-SOUS-LENS
87171728;Loivre;LXV;49.3466786; 3.9906699;51329;LOIVRE
87611053;Longages - Noé;LNN;43.3563239; 1.2519529;31303;LONGAGES
87712620;Longecourt-en-Plaine;LJK;47.1937936; 5.1346952;21353;LONGECOURT-EN-PLAINE
87393611;Longjumeau;LJU;48.7020364; 2.2943957;91345;LONGJUMEAU
87271775;Longpont;LJP;49.2726851; 3.2301676;2438;LONGPONT
87313122;Longpré-les-Corps-Saints;LGP;50.01128; 2.00277;80488;LONGPRE-LES-CORPS-SAINTS
87313817;Longroy - Gamaches;LOG;49.9818917; 1.5526598;76394;LONGROY
87313049;Longueau;LUA;49.86344; 2.35215;80489;LONGUEAU
87272195;Longueil-Annel;LPK;49.4672441; 2.8634086;60368;LONGUEIL-ANNEL
87276303;Longueil-Sainte-Marie;LUE;49.3425377; 2.7175537;60369;LONGUEIL-SAINTE-MARIE
87411447;Longuerue - Vieux-Manoir;LWM;49.5566781; 1.2762275;76738;VIEUX-MANOIR
87116137;Longueville;LON;48.513703; 3.249822;77260;LONGUEVILLE
87415141;Longueville-sur-Scie;LEV;49.7917558; 1.1103434;76397;LONGUEVILLE-SUR-SCIE
87194274;Longuyon;LGN;49.4442555; 5.604482;54322;LONGUYON
87194001;Longwy;LWY;49.5129923; 5.7696358;54323;LONGWY
87718239;Lons-le-Saunier;LLS;46.66858; 5.551108;39300;LONS-LE-SAUNIER
87286112;Loos lez Lille;LLZ;50.6128165; 3.0170581;59360;LOOS
87345033;Loos-en-Gohelle;LQG;50.4378798; 2.7933955;62498;LENS
87576157;Loreux;LXU;47.3902731; 1.8345356;41118;LOREUX
87476002;Lorient Bretagne Sud;LRT;47.755597; -3.366221;56121;LORIENT
87761262;Loriol-sur-Drôme;LOL;44.7544973; 4.8171679;26166;LORIOL-SUR-DROME
87142109;Lorraine TGV;TGL;48.947773; 6.169838;57422;LOUVIGNY
87597104;Lothiers;LOT;46.6946801; 1.5629763;36219;TENDU
87713735;Louhans;LHN;46.6309; 5.2174853;71263;LOUHANS
87491290;Loulay;LLY;46.0435165; -0.5017525;17211;LOULAY
87343475;Lourches;LOU;50.3102834; 3.3434016;59504;ROEULX
87671339;Lourdes;LDS;43.10037; -0.042174;65286;LOURDES
87641050;Louroux-de-Bouble;LXB;46.2241289; 2.9849368;3152;LOUROUX-DE-BOUBLE
87382457;Louveciennes;LFC;48.8610361; 2.1230176;78350;LOUVECIENNES
87276253;Louvres;LOV;49.0496573; 2.5018967;95351;LOUVRES
87295535;Louvroil;LWF;50.2683469; 3.9535768;59392;MAUBEUGE
87721423;Lozanne;LOZ;45.85414; 4.681501;69121;LOZANNE
87597096;Luant;LUK;46.7357683; 1.5901964;36101;LUANT
87734368;Luc;LCZ;44.654092; 3.8915631;48086;LUC
87761874;Luc-en-Diois;LDE;44.6136615; 5.4546227;26167;LUC-EN-DIOIS
87615773;Luc-la-Primaube;LPA;44.2913982; 2.5544751;12133;LUC-LA-PRIMAUBE
87394015;Lucé;LCJ;48.4366725; 1.4529681;28218;LUCE
87486258;Luçon;LRK;46.4638232; -1.1674217;85128;LUCON
87581181;Ludon-Médoc;LXN;44.9744015; -0.6118009;33256;LUDON-MEDOC
87141481;Ludres;LUD;48.6219545; 6.1709118;54328;LUDRES
87172189;Lumes;LUQ;49.7327973; 4.7833571;8263;LUMES
87781575;Lunas;LKH;43.7095814; 3.1948986;34144;LUNAS
87773408;Lunel;LUN;43.679392; 4.131086;34145;LUNEL
87773424;Lunel-Viel;LWQ;43.6811729; 4.0937398;34146;LUNEL-VIEL
87576280;Lunery;LNY;46.9351795; 2.275014;18133;LUNERY
87141150;Lunéville;LNE;48.588233; 6.49727;54329;LUNEVILLE
87672741;Lurbe-Saint-Christau;CLE;43.12099; -0.60408;64360;LURBE-SAINT-CHRISTAU
87185249;Lure;LUR;47.683269; 6.4925787;70310;LURE
87747667;Lus-la-Croix-Haute;LCX;44.6709898; 5.6973678;26168;LUS-LA-CROIX-HAUTE
87485540;Lusignan;LUI;46.4354949; 0.116555;86139;LUSIGNAN
87575845;Lussac-les-Châteaux;LLX;46.4051106; 0.7186918;86140;LUSSAC-LES-CHATEAUX
87182543;Luttenbach-près-Munster;LFZ;48.0352559; 7.1186307;68193;LUTTENBACH-PRES-MUNSTER
87215160;Lutzelbourg;LZF;48.7299065; 7.2516808;57427;LUTZELBOURG
87214650;Lutzelhouse;LZH;48.51812; 7.29391;67306;MUHLBACH-SUR-BRUCHE
87583823;Luxé;LXC;45.8873947; 0.1094107;16196;LUXE
87185595;Luxeuil-les-Bains;LXL;47.8148606; 6.3726593;70311;LUXEUIL-LES-BAINS
87276576;Luzarches;LUZ;49.11719; 2.42074;95352;LUZARCHES
87611558;Luzenac - Garanou;LUG;42.7642849; 1.7531248;9131;GARANOU
87696534;Luzy;LUY;46.7940793; 3.9693245;58149;LUZY
87988717;Lycée Henri Sellier;LHS;48.91646; 2.51504;93046;LIVRY-GARGAN
87721175;Lyon Gorge de Loup;LYL;45.766078; 4.804631;69389;LYON--9E--ARRONDISSEMENT
87282624;Lyon Jean Macé;LJC;45.74495; 4.84139;69387;LYON--7E--ARRONDISSEMENT
87723197;Lyon Part Dieu;LYD;45.760559; 4.859355;69383;LYON--3E--ARRONDISSEMENT
87722025;Lyon Perrache;LPR;45.748476; 4.825733;69382;LYON--2E--ARRONDISSEMENT
87762906;Lyon Saint-Exupéry TGV;SXA;45.721109; 5.074969;69299;COLOMBIER-SAUGNIEU
87721159;Lyon Saint-Paul;LSP;45.76601; 4.827057;69385;LYON--5E--ARRONDISSEMENT
87721001;Lyon Vaise;LVI;45.779938; 4.80396;69389;LYON--9E--ARRONDISSEMENT
87581199;Macau;MCA;45.0040981; -0.6200068;33262;MACAU
87481366;Machecoul;MCC;46.9905038; -1.8227524;44087;MACHECOUL
87745588;Machilly;MCI;46.2512825; 6.3282335;74158;MACHILLY
87725689;Mâcon;MAC;46.302572; 4.824887;71270;MACON
