id_commune;nom_commune;lat;lon
85136;MARILLET;46.5667525381; -0.634287713939
81132;GUITALENS-L'ALBAREDE;43.6378592707; 2.04358289042
88354;PONT-SUR-MADON;48.3708641633; 6.15132896221
33184;GENERAC;45.1736695574; -0.545835107473
2526;MORGNY-EN-THIERACHE;49.7544947391; 4.07631392389
26320;SAINT-NAZAIRE-EN-ROYANS;45.0573449267; 5.24447209111
67228;NEUGARTHEIM-ITTLENHEIM;48.6565369611; 7.5414687691
46147;LAGARDELLE;44.4870907058; 1.17069333497
37024;BENAIS;47.3156279814; 0.217451239444
55200;FROMEREVILLE-LES-VALLONS;49.1642010056; 5.29335139433
39118;CHATEL-DE-JOUX;46.5296472131; 5.80925298746
51004;ALLEMANCHE-LAUNAY-ET-SOYER;48.6066890182; 3.79098671125
87153;SAINT-JULIEN-LE-PETIT;45.8226789716; 1.70562230623
77373;PONTAULT-COMBAULT;48.7871411658; 2.61407436985
79307;SAUZE-VAUSSAIS;46.1223913244; 0.111211623906
61204;L'HERMITIERE;48.2840687483; 0.659332484334
57370;KOENIGSMACKER;49.3882172495; 6.28617286599
62285;ECOUST-SAINT-MEIN;50.1738217586; 2.90196588934
45019;BACCON;47.8850157049; 1.62389157933
18267;TROUY;47.0200069929; 2.36619290348
54183;ESSEY-LA-COTE;48.423637788; 6.47050708108
16287;ROULLET-SAINT-ESTEPHE;45.5803788491; 0.0313550273594
62763;SAINT-MICHEL-SUR-TERNOISE;50.375190709; 2.36052687199
50353;LE MONT-SAINT-MICHEL;48.6222106276; -1.53309065436
95483;LE PERCHAY;49.1164053302; 1.92739087092
39495;SAINT-THIEBAUD;46.9717927523; 5.8808709853
38204;LALLEY;44.74656983; 5.68463742085
8234;INAUMONT;49.5628562714; 4.31902902428
65121;CAMALES;43.3587114668; 0.0800191422189
33479;SAINT-SEVE;44.6068639564; -0.0241032514519
16025;BAIGNES-SAINTE-RADEGONDE;45.374443862; -0.254082617191
24379;SAINT-AVIT-SENIEUR;44.7750925645; 0.824289637501
65062;BARBAZAN-DEBAT;43.201851966; 0.129955186604
60656;VARINFROY;49.0940200918; 3.0480173997
39171;COURLAOUX;46.6694520389; 5.44937543437
13053;MALLEMORT;43.7285832667; 5.18297726548
46137;LABASTIDE-MARNHAC;44.386742628; 1.38959761841
60582;SAINT-LEGER-AUX-BOIS;49.4782276386; 2.95219747326
38291;PAJAY;45.3585074391; 5.12972839303
16196;LUXE;45.8951621262; 0.124490429132
28367;SANTILLY;48.1486900011; 1.87957339759
54027;ATTON;48.892928495; 6.11100019961
51220;DROUILLY;48.7699720491; 4.51233011677
71181;DONZY-LE-PERTUIS;46.4479607517; 4.71724886753
21348;LICEY-SUR-VINGEANNE;47.4868270493; 5.37313028131
45227;NEVOY;47.7333698571; 2.59240936936
62465;HUMBERCAMPS;50.1884753334; 2.5745331886
2168;CHATEAU-THIERRY;49.0564070801; 3.38160004843
31302;LODES;43.1663358604; 0.657578380319
59629;VRED;50.3939409921; 3.23217277359
35346;TRIMER;48.3440055823; -1.89692594025
68343;UNGERSHEIM;47.8739838916; 7.30532668717
27108;BOURTH;48.7632114791; 0.806179122315
2830;WASSIGNY;50.017642986; 3.59944731539
68328;STORCKENSOHN;47.8640611767; 6.94243466248
67417;ROTTELSHEIM;48.759113126; 7.71180608722
67254;KUTZENHAUSEN;48.9388573117; 7.8491381943
34017;AUMES;43.4638784757; 3.46993966613
18150;MERY-SUR-CHER;47.2476860248; 1.99385861671
10224;MARIGNY-LE-CHATEL;48.4016409293; 3.72139203898
32426;SEISSAN;43.4981861217; 0.571544728531
39066;BORNAY;46.6118982818; 5.55324402199
7183;PRADONS;44.473019743; 4.37584445661
60185;CROUY-EN-THELLE;49.2099385814; 2.32007698271
12168;NANT;44.0206117427; 3.28565334346
74205;ONNION;46.1816924284; 6.49869806571
2B095;CORSCIA;42.3691487665; 9.05557667176
31261;LAFITTE-VIGORDANE;43.3031701623; 1.1622399774
67372;PFAFFENHOFFEN;48.8432047964; 7.59893121728
76484;OISSEL;49.3477840873; 1.07400763141
71190;EPINAC;46.9908631777; 4.51976953086
51617;LA VEUVE;49.0370630593; 4.33427822759
74008;AMBILLY;46.1961567042; 6.22429975401
42151;MORNAND-EN-FOREZ;45.6717929888; 4.11953674559
79031;BEAUVOIR-SUR-NIORT;46.180941644; -0.473314553431
37267;VERETZ;47.3522450777; 0.810254495994
73315;VILLARD-LEGER;45.501239323; 6.17384945736
41146;MONTHOU-SUR-CHER;47.351720705; 1.29095407473
76562;SAINT-AUBIN-LE-CAUF;49.8678815711; 1.17642488577
19150;NOAILHAC;45.0827332005; 1.61660799829
76330;GRUCHET-SAINT-SIMEON;49.8224015028; 0.891150990801
19053;CHAVEROCHE;45.56551046; 2.25206611427
73255;SAINTE-MARIE-DE-CUINES;45.3192133197; 6.29393151953
51543;SOMME-BIONNE;49.0883022983; 4.71735582412
57088;BISTROFF;49.0038033452; 6.70381157124
47035;BOURGOUGNAGUE;44.6190672361; 0.419708136105
80313;FLAUCOURT;49.9174280416; 2.86789374494
55022;AVIOTH;49.5663158104; 5.39049784871
1155;EVOSGES;45.965147537; 5.50283599885
69022;BIBOST;45.7969461911; 4.54895137965
65393;SAINT-PASTOUS;43.0155024767; -0.0429811806834
1165;FRANCHELEINS;46.0735946256; 4.81293575559
7094;GILHAC-ET-BRUZAC;44.8632410732; 4.74540308425
80657;QUIRY-LE-SEC;49.6700274695; 2.3838470915
27118;BROSVILLE;49.1097913222; 1.11344092166
25073;BONNAY;47.3292152038; 6.04469587885
42255;SAINT-MARCEL-D'URFE;45.8708472787; 3.87977382868
51328;LOISY-SUR-MARNE;48.7501424119; 4.54084010874
25635;VYT-LES-BELVOIR;47.34826508; 6.62592546022
62818;TILLY-CAPELLE;50.4443030623; 2.1871596899
66136;PERPIGNAN;42.6965954131; 2.89936953979
24225;LAMONZIE-SAINT-MARTIN;44.8334514819; 0.387772567159
77011;AUFFERVILLE;48.2049342797; 2.60096783271
15080;JOURSAC;45.165021316; 3.01361412899
15099;LAVASTRIE;44.9348007487; 3.04219086155
32355;SADEILLAN;43.3960094567; 0.343407720125
2768;VAUXAILLON;49.4770651148; 3.40823751638
9212;MONTSERON;43.0208884939; 1.31655733885
86296;VOULON;46.3650497334; 0.24044017577
44034;LA CHAPELLE-SAINT-SAUVEUR;47.445449236; -0.980399582203
2534;MUSCOURT;49.3595795698; 3.74350239233
52330;MONTHERIES;48.1797188872; 4.90288673895
60097;BOUTENCOURT;49.3205572988; 1.87026132379
80027;ARMANCOURT;49.6767593182; 2.71293599073
76190;CRASVILLE-LA-ROCQUEFORT;49.8041521575; 0.877451277489
39586;ARESCHES;46.8933326292; 5.91985610861
24180;FIRBEIX;45.5924010837; 0.9420529735
70399;ORMOY;47.8850612988; 5.99402771513
58044;LA CELLE-SUR-LOIRE;47.4852979363; 2.93434517824
79246;SAINTE-EANNE;46.3915503941; -0.134321812271
61285;MONTGAROULT;48.751612807; -0.141264839999
8128;CONDE-LES-AUTRY;49.2451972649; 4.85549543299
22205;PLOREC-SUR-ARGUENON;48.4632496274; -2.30133142884
79084;CHENAY;46.3306772083; -0.0114425772663
22144;LA MEAUGON;48.5044768613; -2.84729418508
80589;NEUILLY-LE-DIEN;50.2260892349; 2.04754518311
18253;SOULANGIS;47.1798980762; 2.51528453779
59464;POIX-DU-NORD;50.185059973; 3.61684782607
89442;VERNOY;48.0940567499; 3.12610301658
43030;BLANZAC;45.1107801226; 3.85037132513
24205;GRIGNOLS;45.0847043136; 0.539775704647
48040;CHASSERADES;44.5519524888; 3.82030750728
76493;PALUEL;49.8443584396; 0.630759269257
33154;LES EGLISOTTES-ET-CHALAURES;45.0928940224; -0.0328830508669
12141;MARTRIN;43.9287986498; 2.63394013332
54383;MONT-SUR-MEURTHE;48.5493164912; 6.44216065788
18124;LAZENAY;47.0669527618; 2.0765874358
31362;MONTBERAUD;43.1595238311; 1.15513584785
16292;RUFFEC;46.039455304; 0.199192104707
14666;SANNERVILLE;49.183938753; -0.22288028462
62358;FRESNOY-EN-GOHELLE;50.3685369312; 2.89601093482
67030;BERGBIETEN;48.5771244719; 7.4507261973
76113;BOISSAY;49.5184469464; 1.3599768113
47065;CLAIRAC;44.371064569; 0.38579130311
25433;ORGEANS-BLANCHEFONTAINE;47.266487614; 6.75428346905
9162;LERCOUL;42.7098891708; 1.52802126242
65408;SARRANCOLIN;42.9604187161; 0.411895325406
10130;DOSNON;48.6149582778; 4.24653182563
47036;BOURLENS;44.4254220753; 0.972634935921
69269;YZERON;45.7095752496; 4.59542617149
3212;QUINSSAINES;46.3092023874; 2.49444625529
80792;LA VICOGNE;50.0639160287; 2.32503477883
9290;SENTEIN;42.8358878297; 0.920341995173
76285;FRESNE-LE-PLAN;49.4137813639; 1.29661509425
49155;GREZ-NEUVILLE;47.5951579943; -0.695965516847
86175;NALLIERS;46.6098862089; 0.879990310678
72228;PARCE-SUR-SARTHE;47.8213588323; -0.193405753909
32369;SAINTE-CHRISTIE-D'ARMAGNAC;43.7937355004; -0.00494982246103
8331;NOYERS-PONT-MAUGIS;49.6588347678; 4.9300445508
27249;FONTAINE-BELLENGER;49.1802280169; 1.2530305732
17469;VILLARS-EN-PONS;45.6039717298; -0.628988620843
76652;SAINT-VAAST-D'EQUIQUEVILLE;49.8151815963; 1.26095923266
1112;CONDAMINE;46.105831161; 5.55568206762
16338;SAINT-MEDARD;45.5085263849; -0.134402702237
25321;VILLERS-LE-LAC;47.0702797882; 6.68940922893
60418;MONTIERS;49.5038812733; 2.56965274789
32002;ANSAN;43.6870501224; 0.781408599383
43154;PRADELLES;44.7650507799; 3.87177102948
7257;SAINT-JULIEN-LE-ROUX;44.8675203578; 4.67592482949
59518;RUESNES;50.2634217469; 3.5818116421
73299;TRAIZE;45.6716573286; 5.73696272182
57308;HAZEMBOURG;48.9617561061; 6.94250550256
27448;PACY-SUR-EURE;49.0221961311; 1.39950768038
39246;GENDREY;47.1963062843; 5.68474768742
60080;BOISSY-LE-BOIS;49.278858787; 1.94117700611
6148;TOURRETTES-SUR-LOUP;43.7174536642; 7.03989376281
9267;SAINT-LARY;42.9005720195; 0.868448000614
32345;LA ROMIEU;43.9866068735; 0.503612353282
27245;FLEURY-LA-FORET;49.4265842006; 1.55588075817
4129;MONTJUSTIN;43.8452930923; 5.65023560321
7120;LACHAMP-RAPHAEL;44.8006451695; 4.28759440522
8339;PERTHES;49.4486431408; 4.35514092983
12145;MILLAU;44.0976252203; 3.11705384129
31188;FONTENILLES;43.5554168376; 1.19738282576
43207;SAINT-LAURENT-CHABREUGES;45.2768738182; 3.34696183552
12256;SALVAGNAC-CAJARC;44.4543375215; 1.87232547648
53210;SAINT-DENIS-D'ANJOU;47.7899907217; -0.443836396748
76284;FRESNAY-LE-LONG;49.6507422703; 1.09305102633
50209;GONNEVILLE;49.6319375816; -1.47264089403
16195;LUSSAC;45.8580701828; 0.466519460774
58258;SAINT-OUEN-SUR-LOIRE;46.8992684036; 3.3202343008
81151;MAGRIN;43.61527201; 1.9211779967
66162;RIGARDA;42.6279224154; 2.5378645197
7326;USCLADES-ET-RIEUTORD;44.7709560867; 4.1691617243
44071;HAUTE-GOULAINE;47.1960138107; -1.41049118184
27464;LE PLESSIS-GROHAN;48.9443249327; 1.1332422549
57281;HABOUDANGE;48.8851645447; 6.60344571848
62478;JOURNY;50.7533388277; 2.0030860324
22133;LOSCOUET-SUR-MEU;48.1756621507; -2.25102250347
42103;LA GRAND-CROIX;45.5040795864; 4.55860381813
40117;GRENADE-SUR-L'ADOUR;43.792570586; -0.422528940509
62447;HESDIN;50.3737561031; 2.03813237444
50497;SAINT-JORES;49.3026428787; -1.40297620425
71520;SEVREY;46.7358656662; 4.82878798473
64058;ARTHEZ-D'ASSON;43.0890909736; -0.253157457726
25499;ROMAIN;47.4439581352; 6.37976637275
45316;SURY-AUX-BOIS;47.9537349646; 2.35973695052
73226;SAINT-BERON;45.5067164494; 5.72513692798
37126;LERNE;47.1396272073; 0.110609738021
49160;INGRANDES;47.4154942142; -0.920314202965
11090;CEPIE;43.1079654901; 2.23811930779
47320;VILLEFRANCHE-DU-QUEYRAN;44.3035817658; 0.212075905878
71068;BURZY;46.5949751474; 4.58580654162
84053;GRILLON;44.3945766896; 4.93414256152
37085;COURCAY;47.2497992287; 0.884516285898
55384;NICEY-SUR-AIRE;48.8922146905; 5.35514008596
88494;VAUBEXY;48.283956514; 6.23614210512
5140;SAINT-ETIENNE-LE-LAUS;44.5080346822; 6.16323058106
87092;MARVAL;45.6348755661; 0.7960449348
14420;LE MESNIL-GERMAIN;49.0455476434; 0.188698477253
3292;TRONGET;46.418633391; 3.08862365583
8046;BANOGNE-RECOUVRANCE;49.5702609587; 4.13247064343
49046;BREZE;47.1659198942; -0.0543045916422
24353;LA ROCHEBEAUCOURT-ET-ARGENTINE;45.4660887787; 0.382652455353
27557;SAINT-LEGER-DE-ROTES;49.1126606736; 0.662290539561
46315;TEYSSIEU;44.9167422017; 1.95733992168
14692;TILLY-SUR-SEULLES;49.1718691291; -0.62341766889
55449;RUPT-EN-WOEVRE;49.0616267227; 5.49481707998
40278;SAINT-PAUL-EN-BORN;44.2009953973; -1.15027990694
45066;CHAILLY-EN-GATINAIS;47.936543644; 2.5277446897
95678;VILLIERS-ADAM;49.0702888248; 2.23950871871
62161;BOUQUEHAULT;50.8160934944; 1.89974480886
32416;SARRANT;43.7704131309; 0.928322763871
17091;CHARRON;46.2936903771; -1.08092039856
54584;VILLEY-SAINT-ETIENNE;48.7281187821; 5.96351375096
30323;SOUSTELLE;44.1724100561; 4.00032794354
80385;GRAND-LAVIERS;50.1345136521; 1.7882348767
71305;MONTBELLET;46.4713429723; 4.8783736486
12032;BOUSSAC;44.2956919564; 2.37751335609
76275;FONTENAY;49.5698530615; 0.178104990731
23198;SAINT-GEORGES-NIGREMONT;45.8360016114; 2.27335627417
69065;CORCELLES-EN-BEAUJOLAIS;46.153800482; 4.72504633206
51089;BROUILLET;49.2274251852; 3.73673973777
14577;SAINT-GABRIEL-BRECY;49.2707851378; -0.570933954743
3124;GOUISE;46.4107128153; 3.43846428318
10128;DONNEMENT;48.519771783; 4.42815499728
88331;NONZEVILLE;48.2654993347; 6.63356846673
28189;GUILLEVILLE;48.2218869218; 1.80247996905
80280;ERCOURT;50.0405703516; 1.72408461837
10342;SAINT-JEAN-DE-BONNEVAL;48.1719801314; 4.05020732222
1122;CORMARANCHE-EN-BUGEY;45.9442772826; 5.60860828487
59569;SIN-LE-NOBLE;50.3677512577; 3.12071297192
2B046;CAGNANO;42.8719957241; 9.44402317459
40184;MIMIZAN;44.1890027231; -1.24571912607
19137;MEYRIGNAC-L'EGLISE;45.4036167689; 1.86043218765
70455;ROYE;47.6771506136; 6.5417073316
19048;LE CHASTANG;45.1752926501; 1.73283876352
52289;LIFFOL-LE-PETIT;48.2910504229; 5.54344687928
19097;LAFAGE-SUR-SOMBRE;45.2926824126; 2.07691880797
56053;ELVEN;47.7326809062; -2.59279070215
85197;SAINT-ANDRE-TREIZE-VOIES;46.9277672307; -1.4126154924
68197;MAGSTATT-LE-BAS;47.6388902604; 7.41296468612
41018;BLOIS;47.5817013938; 1.30625551583
64293;LABATUT;43.4165864025; -0.0134728274425
87017;BLANZAC;46.1275472261; 1.1079991587
42236;SAINT-HILAIRE-SOUS-CHARLIEU;46.1210288218; 4.1833614828
79144;JUSCORPS;46.2107424942; -0.377400693805
50206;LA GOHANNIERE;48.7013309141; -1.26089756914
14404;MARTAINVILLE;48.9474686277; -0.350260817596
45301;SANTEAU;48.0939958516; 2.15275063221
27063;BERVILLE-LA-CAMPAGNE;49.0261594843; 0.89327089992
65286;LOURDES;43.1074297344; -0.0768069387932
42133;MARCENOD;45.5728199532; 4.48177097511
78591;SEPTEUIL;48.8882003986; 1.68459218607
41205;SAINT-CYR-DU-GAULT;47.6208770485; 1.02593703871
17022;ASNIERES-LA-GIRAUD;45.8934744108; -0.510489870265
8148;L'ECAILLE;49.4095997981; 4.20955430997
72114;DEHAULT;48.208236955; 0.576083536745
2B280;SILVARECCIO;42.4530552903; 9.41788528717
93072;STAINS;48.9567775699; 2.3854495629
11125;EMBRES-ET-CASTELMAURE;42.9295753013; 2.81822778929
32069;CADEILLAN;43.420255903; 0.841855457027
38282;OPTEVOZ;45.7524418147; 5.34043707575
88464;TENDON;48.1081118464; 6.67533830066
19047;CHARTRIER-FERRIERE;45.0582166872; 1.4341213591
50129;CHERBOURG-OCTEVILLE;49.633412156; -1.63390160204
14205;CRISTOT;49.1941809977; -0.570855686258
58259;SAINT-PARIZE-EN-VIRY;46.7536799214; 3.36701488719
39064;BONNAUD;46.6197553345; 5.43048308112
44209;TREILLIERES;47.3178218372; -1.62577302041
72317;SAINT-REMY-DU-VAL;48.3488699009; 0.251095298312
80808;VIRONCHAUX;50.2981889645; 1.82569820077
79024;AZAY-LE-BRULE;46.4045197367; -0.267456920636
56061;LA GACILLY;47.7728317091; -2.15651114837
41154;MOREE;47.9158762496; 1.24887473197
36164;POULIGNY-SAINT-MARTIN;46.5149038846; 2.00555545984
77022;BARBIZON;48.4485166396; 2.60051335634
40268;SAINT-LAURENT-DE-GOSSE;43.5213103938; -1.28404719869
65362;PIERREFITTE-NESTALAS;42.9622556048; -0.0749478244802
32260;MONBARDON;43.3806524383; 0.716563554574
40190;MONSEGUR;43.6151818106; -0.545319135414
11383;SOUILHE;43.3687280247; 1.91691905449
27057;BERNIENVILLE;49.0744161962; 1.02876644978
64196;CROUSEILLES;43.5309932657; -0.0816458802012
35357;VILLAMEE;48.4562439704; -1.21840173852
31353;MONES;43.4181669738; 1.03320759
77102;CHATENOY;48.2308781488; 2.62712492954
82110;MIRABEL;44.1424577987; 1.4113688594
50496;SAINT-JEAN-LE-THOMAS;48.7269044295; -1.51493536559
55172;LES EPARGES;49.0644524312; 5.58324844754
4108;MALIJAI;44.0336660524; 6.0504243737
25188;DAMBENOIS;47.5444605529; 6.87199682255
29160;PLABENNEC;48.4938327293; -4.41894214636
58306;VERNEUIL;46.8603735972; 3.58244196837
14499;PETIVILLE;49.242349527; -0.168464037407
79269;SAINT-MAIXENT-DE-BEUGNE;46.5147236196; -0.613320337812
76664;SASSEVILLE;49.7829827981; 0.690793795865
14732;VAUX-SUR-AURE;49.3070647663; -0.710057114678
50442;LE ROZEL;49.4814801103; -1.82868622801
76643;SAINT-QUENTIN-AU-BOSC;49.9337863822; 1.32468766713
60658;VAUCIENNES;49.2291351959; 3.01623561024
13211;MARSEILLE-11E--ARRONDISSEMENT;43.2884471881; 5.48381466229
32207;LEBOULIN;43.670877929; 0.660565721103
27065;BEUZEVILLE;49.3380079083; 0.342706713598
71100;CHARDONNAY;46.5087214301; 4.84818799475
30354;MONTAGNAC;43.9375478225; 4.1527019626
78049;BAZEMONT;48.9318976597; 1.87410045764
54413;OZERAILLES;49.2259087453; 5.84170990352
50059;BLOSVILLE;49.3718453122; -1.28832073685
19105;LANTEUIL;45.1177049487; 1.64002369199
60260;FRESNOY-LA-RIVIERE;49.2781522381; 2.92700227503
82089;LAMAGISTERE;44.1320571715; 0.821877164854
22140;LA MALHOURE;48.3961928659; -2.49404154442
89213;LADUZ;47.8844849525; 3.39938525851
15235;LES TERNES;44.9962837997; 2.99411909646
72319;SAINTE-SABINE-SUR-LONGEVE;48.1357559817; 0.0899900112141
2384;HOURY;49.7861780633; 3.84806416077
25120;CHANTRANS;47.0477460774; 6.16353019875
41164;NOYERS-SUR-CHER;47.2831417944; 1.41063801702
8126;CONDE-LES-HERPY;49.5425026908; 4.19795434047
70386;LA NEUVELLE-LES-SCEY;47.7015222908; 5.94028495484
38360;SAINT-APPOLINARD;45.1840589989; 5.26050119803
55343;MONTBLAINVILLE;49.2434560123; 4.9948188695
27214;ECOUIS;49.3066926655; 1.42999721744
17053;BORDS;45.8953761527; -0.785050392193
2A001;AFA;41.9844089346; 8.79828936731
17034;BARZAN;45.531214889; -0.867749982144
10063;BRIENNE-LA-VIEILLE;48.3730744162; 4.54688493664
26360;VALAURIE;44.420602445; 4.81063104822
42336;VIRIGNEUX;45.6872242929; 4.34645637144
59222;FAUMONT;50.4531008477; 3.13526855992
97129;SAINTE-ROSE;16.2939779294; -61.7100293031
80278;ERCHES;49.7243449482; 2.67246538039
49025;BEAUVAU;47.5945239256; -0.254061152947
65349;OURDON;43.0322561805; -0.0135097211174
60075;BLANCFOSSE;49.662501216; 2.18953950322
73311;LE VERNEIL;45.450825812; 6.18533015026
31173;ESPERCE;43.2993657224; 1.40063786328
70066;BETAUCOURT;47.8654216499; 5.91855303569
22015;BREHAND;48.393898689; -2.58915945139
12029;BOR-ET-BAR;44.2000941717; 2.08598279329
86005;ANGLIERS;46.9385872919; 0.102241708869
57229;FOULCREY;48.6402409757; 6.86776109913
14006;AMAYE-SUR-ORNE;49.0911214253; -0.434224922695
78006;ADAINVILLE;48.7201535833; 1.66232511762
22024;CALANHEL;48.4405735546; -3.47617281469
42037;CHALAIN-D'UZORE;45.6726268892; 4.06032311486
79083;CHEF-BOUTONNE;46.1151550061; -0.081086313145
77507;VILLENAUXE-LA-PETITE;48.4004012721; 3.31327470557
52358;NOYERS;48.0613888303; 5.48533764002
77318;MORTCERF;48.7828938577; 2.90546822956
68271;RIEDISHEIM;47.7396931501; 7.36582056128
12010;ARQUES;44.3220848863; 2.80404631161
54056;BAZAILLES;49.4100137123; 5.76596330618
52066;BRACHAY;48.3817212409; 5.03615837807
33383;SAINT-CHRISTOLY-MEDOC;45.3574015951; -0.834464734201
52456;SAINT-URBAIN-MACONCOURT;48.3964570951; 5.19639597902
28239;MARVILLE-MOUTIERS-BRULE;48.6748561524; 1.37887146982
79352;VILLIERS-SUR-CHIZE;46.0980469832; -0.30373228125
57227;FORBACH;49.1912650369; 6.89275798526
10207;LONGUEVILLE-SUR-AUBE;48.5509934474; 3.91289272795
46183;MARCILHAC-SUR-CELE;44.5442171606; 1.77401104203
65396;SAINT-SAVIN;42.9753213682; -0.0917828178997
42054;CHATELNEUF;45.6388781024; 3.97962390788
54139;COURBESSEAUX;48.6914376855; 6.4022815813
38044;BIOL;45.4963748824; 5.36908721787
82194;VILLEBRUMIER;43.9202948869; 1.4512543274
29085;ILE-TUDY;47.8527643575; -4.16160884308
84056;JONQUIERES;44.1318029558; 4.91341542999
61083;CHAMBOIS;48.8158758305; 0.112532847122
54249;HANNONVILLE-SUZEMONT;49.098891613; 5.83676444356
72327;SARCE;47.7223246034; 0.228700458643
95582;SANNOIS;48.9717773111; 2.25299514112
64091;BALIROS;43.2285177341; -0.308318533909
88321;NEUFCHATEAU;48.3565023559; 5.69131913979
65109;BRAMEVAQUE;42.9775013643; 0.559652236891
61114;COMMEAUX;48.7884537955; -0.0987177513716
42058;CHAZELLES-SUR-LAVIEU;45.5423204003; 4.00189316326
28261;MONTIGNY-LE-CHARTIF;48.2909978482; 1.13008902025
50212;GOURBESVILLE;49.4226999224; -1.40960011709
68382;ZAESSINGUE;47.6197053459; 7.37256538622
38250;MONTCARRA;45.6090751689; 5.39984266254
95387;MENOUVILLE;49.1532355635; 2.10779433987
63145;EGLISENEUVE-DES-LIARDS;45.5658772497; 3.42053251866
44153;SAINT-AUBIN-DES-CHATEAUX;47.7056440734; -1.47872960477
66129;ORTAFFA;42.5843466688; 2.92083398591
50189;FONTENAY;48.625352704; -1.02073047317
60278;GOLANCOURT;49.7032997149; 3.06874567879
89277;NITRY;47.6765715644; 3.87691630334
60261;FRESNOY-LE-LUAT;49.2127033818; 2.76283065148
18008;ARCAY;46.9625352039; 2.3359112711
16405;VIGNOLLES;45.5067551698; -0.0973753032134
53211;SAINT-DENIS-DE-GASTINES;48.3469457308; -0.87082653269
50556;SAINTE-SUZANNE-SUR-VIRE;49.0733180514; -1.05714630383
8420;SIGNY-LE-PETIT;49.9309499097; 4.2990463026
67503;UTTWILLER;48.8464668751; 7.49650290601
33485;SAINTE-TERRE;44.8338850704; -0.120538591172
59588;TETEGHEM;51.0158652678; 2.45278368133
52216;GERMAINES;47.7994372317; 5.02777502578
21233;DRAMBON;47.3340095649; 5.37849298375
7148;MALBOSC;44.349514949; 4.07246027808
7097;GLUN;45.0070163516; 4.82465206981
95257;LA FRETTE-SUR-SEINE;48.9745244717; 2.17786777518
67469;SINGRIST;48.6694227144; 7.38506335473
37016;AZAY-SUR-INDRE;47.2038896853; 0.943284326846
29289;TREGARVAN;48.2369590372; -4.23152835996
42278;SAINT-PRIEST-LA-VETRE;45.8015242352; 3.80979787497
57703;VECKERSVILLER;48.8297509643; 7.18632776564
31074;BONREPOS-RIQUET;43.6764879436; 1.62258710313
57001;ABONCOURT;49.2565158648; 6.35416455836
12018;BALAGUIER-D'OLT;44.5189126443; 1.97719263772
57015;ALTVILLER;49.0689443074; 6.73140491187
42207;SAINT-CHAMOND;45.4698319517; 4.50184989506
41214;SAINT-HILAIRE-LA-GRAVELLE;47.931232261; 1.18263470311
82144;PUYCORNET;44.1546581959; 1.32199868953
49361;VARENNES-SUR-LOIRE;47.247861704; 0.0416546487257
85088;LE FENOUILLER;46.7161264566; -1.89206667498
85115;LA JAUDONNIERE;46.6488761831; -0.962477574588
73181;MOUTIERS;45.4857466628; 6.53657755978
58300;URZY;47.0592677863; 3.20126668844
31062;BELLESSERRE;43.7873665231; 1.10128941207
68141;HOCHSTATT;47.7093051072; 7.26674678515
61158;FAVEROLLES;48.6691172577; -0.289200935258
2358;GROUGIS;49.9508110437; 3.53098081744
29238;ROSCANVEL;48.3183736714; -4.55863270014
56012;BEIGNON;47.9655803913; -2.1804139894
78385;MENERVILLE;48.9566835717; 1.59610818145
69220;SAINT-LAURENT-DE-CHAMOUSSET;45.7378229671; 4.46479069472
61193;LA GONFRIERE;48.8156823436; 0.490360081148
70127;CHANTES;47.6237829598; 5.92693390957
11093;LE CLAT;42.7871660993; 2.17404309802
1406;SERVIGNAT;46.4346497878; 5.05559973107
1150;DROM;46.2196603059; 5.36799994918
18177;PARNAY;46.8513776331; 2.55606472439
24492;SAINTE-RADEGONDE;44.6845072022; 0.677670644919
2435;LOGNY-LES-AUBENTON;49.8330144048; 4.2201280927
67300;MOLSHEIM;48.5447196161; 7.4995001297
9201;MONTEGUT-EN-COUSERANS;42.9834376015; 1.09301526592
3300;VAUMAS;46.4484082735; 3.6241176484
63061;BUSSIERES-ET-PRUNS;46.0068491978; 3.23823283226
83138;TOURRETTES;43.6140539601; 6.72378364475
67411;ROSHEIM;48.490413735; 7.41207007733
17404;SAINT-SIMON-DE-PELLOUAILLE;45.6096933438; -0.675236020671
80602;OCCOCHES;50.1823597887; 2.28746052815
60670;VERNEUIL-EN-HALATTE;49.2729920918; 2.53462190972
8484;VILLE-SUR-RETOURNE;49.3939644349; 4.44716012221
67475;SPARSBACH;48.8795880756; 7.40029606816
5180;LES VIGNEAUX;44.8212773186; 6.53677172828
17309;SAINT-AIGULIN;45.1668978802; -0.0436327584694
62626;NOYELLES-LES-VERMELLES;50.4912262518; 2.72838985487
25369;MARVELISE;47.5218664917; 6.59359255229
44032;LA CHAPELLE-HEULIN;47.1722913827; -1.34993806222
80016;ALBERT;50.0040829344; 2.6483138296
24079;CANTILLAC;45.4000368216; 0.643672265068
17450;TORXE;45.9609696756; -0.637755810704
43238;SENEUJOLS;44.9541814501; 3.78325926498
60372;LUCHY;49.5519072556; 2.11494855936
73135;HERMILLON;45.3048823312; 6.38960278843
18127;LIGNIERES;46.7617210337; 2.20479418633
57438;MALROY;49.174168393; 6.21680938131
62371;GIVENCHY-EN-GOHELLE;50.3925166262; 2.77782748947
31461;ROUEDE;43.0564508263; 0.882775908719
49014;AVIRE;47.7118822608; -0.791626507041
33289;MONSEGUR;44.6462089079; 0.0892904208174
26268;ROCHEBAUDIN;44.5748560489; 5.03096278757
47074;COUTHURES-SUR-GARONNE;44.5203730714; 0.068285349184
30096;CORNILLON;44.2191528402; 4.49474987476
29273;SANTEC;48.7000595566; -4.02979290086
57179;DISTROFF;49.336051033; 6.26255383896
59323;JENLAIN;50.3097021009; 3.63092596962
10186;LAINES-AUX-BOIS;48.2286422657; 3.97898834535
30193;PARIGNARGUES;43.8696516481; 4.21350667303
60393;MELLO;49.2782636292; 2.37545666755
76396;LONGUERUE;49.5473482458; 1.28948826612
27475;LA POTERIE-MATHIEU;49.2525189802; 0.522008481634
51594;VASSIMONT-ET-CHAPELAINE;48.7597343436; 4.13985568358
80336;FOUCAUCOURT-HORS-NESLE;49.9175841672; 1.71782480401
81254;SAINT-JEAN-DE-MARCEL;44.0562910218; 2.24878070436
88308;MONT-LES-NEUFCHATEAU;48.3527617859; 5.64259267987
24572;VERGT-DE-BIRON;44.6363482611; 0.84946470497
2422;LESQUIELLES-SAINT-GERMAIN;49.931687068; 3.62808644318
5084;MONTGARDIN;44.543584781; 6.23305665739
70070;BETONCOURT-SUR-MANCE;47.8378409607; 5.75511684653
61033;BEAULANDAIS;48.5348462225; -0.534595942036
63208;MARCILLAT;46.0775559364; 3.03384594494
33304;NEUFFONS;44.6479485924; 0.0115623600622
59050;BAS-LIEU;50.1443528184; 3.95104519087
60589;SAINT-MAXIMIN;49.224445885; 2.45930498428
60655;VARESNES;49.5566902552; 3.07817073988
17424;SEMOUSSAC;45.3899137022; -0.624747123124
12016;AUZITS;44.4995549267; 2.32166840443
62659;PLANQUES;50.4663856926; 2.08885022364
9109;DURFORT;43.1953151642; 1.46374682599
62023;ALLOUAGNE;50.5322320704; 2.50493799409
26038;BEAUMONT-MONTEUX;45.0333702322; 4.92164362037
77514;VILLEPARISIS;48.9419981883; 2.61700200964
26323;SAINT-PAUL-LES-ROMANS;45.0586462417; 5.12685510741
36233;LA VERNELLE;47.242881421; 1.56367685749
34204;PLAISSAN;43.5590614886; 3.52978704961
54363;MERCY-LE-HAUT;49.3697647828; 5.82533322849
31568;VARENNES;43.4764363476; 1.69248446049
50119;LES CHAMPS-DE-LOSQUE;49.1778691017; -1.22163591323
38330;QUINCIEU;45.2780969864; 5.38636938666
2489;MOLINCHART;49.5624802928; 3.53979641476
51316;LARZICOURT;48.6349897271; 4.72626956254
21045;BARBIREY-SUR-OUCHE;47.2520386403; 4.74025320877
27181;COURDEMANCHE;48.8022859071; 1.27664231305
85102;GRAND'LANDES;46.8483283063; -1.64453002578
59652;WAVRECHAIN-SOUS-FAULX;50.270787775; 3.28212535821
78420;MONTFORT-L'AMAURY;48.771347152; 1.80894544858
16298;SAINT-AMANT-DE-NOUERE;45.7363123323; -0.00546098740035
39269;JEURRE;46.3689937737; 5.70478472529
28286;OLLE;48.3861713176; 1.29676910004
33396;SAINT-ETIENNE-DE-LISSE;44.880960315; -0.0941588854927
2155;CHAILLEVOIS;49.5081654549; 3.52234605948
68282;ROMAGNY;47.6112014535; 7.06778027681
46078;COUZOU;44.7694704061; 1.63206532223
64493;SAINT-PALAIS;43.3153764046; -1.0377471932
54506;SEXEY-LES-BOIS;48.7189207027; 6.0309719075
64462;RAMOUS;43.5249836797; -0.880069037681
2197;CLAIRFONTAINE;49.9739945177; 3.98660655282
81156;MARSSAC-SUR-TARN;43.9102726323; 2.03641141101
28212;LOIGNY-LA-BATAILLE;48.126976397; 1.72344653891
85227;SAINT-HILAIRE-DES-LOGES;46.4747117878; -0.650611151998
60453;LA NEUVILLE-D'AUMONT;49.3177690805; 2.10113160319
89164;FESTIGNY;47.5587659772; 3.53435245124
3128;HURIEL;46.3770986154; 2.48198364823
77408;SAINT-FIACRE;48.9247152564; 2.95384065653
85110;L'HERMENAULT;46.5156262822; -0.898430664265
59653;WAVRIN;50.5726224029; 2.93337226806
4073;ENCHASTRAYES;44.3640085405; 6.71028980662
46258;SAINT-CIRQ-SOUILLAGUET;44.7052928988; 1.44133375749
56085;HOEDIC;47.3396501062; -2.87582897878
69108;LANCIE;46.1730373902; 4.72575548606
52391;PLANRUPT;48.512744399; 4.78886303175
16017;ANVILLE;45.8313102737; -0.121697535587
45138;ESCRIGNELLES;47.7126670746; 2.81932848772
7266;SAINTE-MARGUERITE-LAFIGERE;44.4845583529; 3.99775571578
57208;FARSCHVILLER;49.0904845084; 6.88423747593
39360;MONTMIREY-LA-VILLE;47.2170742688; 5.51651426821
14178;CORBON;49.1454302812; -0.0279530405109
25245;FONTAIN;47.1923642064; 6.03885344956
40073;CASTELNER;43.5522725117; -0.591274524303
78043;BAILLY;48.8366896896; 2.08067809572
78242;FONTENAY-LE-FLEURY;48.8177984988; 2.04662335413
7024;BANNE;44.3607782702; 4.15113804507
21596;SAVOUGES;47.1806736269; 5.05798309916
44064;GORGES;47.1044539402; -1.31077198119
76483;OHERVILLE;49.7271197121; 0.689847919572
81129;LAGARDIOLLE;43.4996169804; 2.0926664241
11105;COURNANEL;43.0297699245; 2.23528266508
55045;BELRUPT-EN-VERDUNOIS;49.1477821746; 5.45052020242
38508;TORCHEFELON;45.5189293632; 5.40282237683
86113;ITEUIL;46.484768544; 0.291606821215
5109;PUY-SAINT-PIERRE;44.8973152572; 6.60470761793
80408;HALLOY-LES-PERNOIS;50.0427875806; 2.20337293934
85233;SAINT-JEAN-DE-BEUGNE;46.5196817523; -1.10826075013
40191;MONTAUT;43.7283439402; -0.656045169398
49294;SAINT-LAMBERT-LA-POTHERIE;47.4862725971; -0.690818663562
38466;SAINT-VINCENT-DE-MERCUZE;45.3749280893; 5.95880834631
28001;ABONDANT;48.795057031; 1.42001117062
58293;TOURY-LURCY;46.7373495509; 3.42432236339
66169;SAINT-ARNAC;42.7767967015; 2.53565116152
28356;SAINT-PELLERIN;48.0724373117; 1.14348881457
45168;INGRANNES;47.9939802289; 2.2247865408
3198;NEURE;46.7448146276; 2.97978880995
5167;SIGOTTIER;44.458049604; 5.68531113946
47098;FIEUX;44.0999645384; 0.42354302505
55262;JUVIGNY-SUR-LOISON;49.4608506316; 5.33129815426
65144;CHEUST;43.0559325042; 0.029784427126
57007;ADAINCOURT;49.0059162559; 6.44419024928
61144;DANCE;48.365249697; 0.760404854793
77335;CHAUCONIN-NEUFMONTIERS;48.9719332783; 2.83158634864
24226;LAMOTHE-MONTRAVEL;44.8527560372; 0.0166870245724
75103;PARIS-3E-ARRONDISSEMENT;48.8630541318; 2.35936105897
3245;SAINT-MARTIN-DES-LAIS;46.6742609191; 3.65661845694
11119;LA DIGNE-D'AMONT;43.0391924198; 2.16079139515
70318;MAGNY-DANIGON;47.6813542817; 6.61123865136
26027;BARSAC;44.7264116116; 5.30407617795
87132;SAINT-AMAND-LE-PETIT;45.7692929778; 1.76751945612
77436;SAINT-SIMEON;48.8045983956; 3.19433416433
54111;CHALIGNY;48.6369570839; 6.09005794818
80113;BONNEVILLE;50.0778725403; 2.26234835981
37248;SEUILLY;47.1268380183; 0.160711623152
76627;SAINT-NICOLAS-DE-LA-TAILLE;49.5142461624; 0.469748142388
57765;DIESEN;49.1755911262; 6.69315944055
71219;GIGNY-SUR-SAONE;46.6538485126; 4.93846686758
31228;GRAGNAGUE;43.6830952674; 1.58238144646
21544;SAINTE-COLOMBE;47.4272975926; 4.46203899793
59186;ECCLES;50.1988413348; 4.09813341605
33226;LANGOIRAN;44.7077300213; -0.374262816088
32024;AYGUETINTE;43.8324278378; 0.418923178256
55374;NANT-LE-PETIT;48.6517674687; 5.22623977721
38295;PARMILIEU;45.8448442617; 5.35457902828
50079;BREUVILLE;49.5381940041; -1.66976755388
73139;JARSY;45.669075325; 6.21321879581
21030;AUBAINE;47.129772588; 4.7343345695
37241;SAVIGNE-SUR-LATHAN;47.4496709939; 0.326681669854
85165;L'OIE;46.7813089389; -1.12070248588
21191;CORCELLES-LES-CITEAUX;47.1692110216; 5.08258953072
16068;CELLEFROUIN;45.8877573804; 0.391851835711
48001;ALBARET-LE-COMTAL;44.8676627998; 3.14383678125
21594;SAVOISY;47.7365116714; 4.39978655066
58118;FOURS;46.8089651055; 3.72049071948
62204;CAMPAGNE-LES-HESDIN;50.401191114; 1.86634630857
57188;EGUELSHARDT;49.0242750772; 7.52002924724
74234;SAINT-FERREOL;45.7833203062; 6.30718276137
55525;VADELAINCOURT;49.0698810912; 5.25891845389
2382;HOLNON;49.8612556888; 3.20085325892
2597;PERLES;49.3260296894; 3.65171293395
68195;LUTTERBACH;47.7610968864; 7.27261262553
30277;SAINT-LAURENT-DE-CARNOLS;44.2256485966; 4.53204790849
80461;LAMOTTE-BREBIERE;49.8946355893; 2.39437471937
50299;LE MESNIL;49.3719294322; -1.69334065015
31334;MAUZAC;43.3756100753; 1.30283298461
14568;SAINTE-CROIX-GRAND-TONNE;49.2337047582; -0.556033226741
59254;FRESSAIN;50.2829594632; 3.19200167251
2719;SINCENY;49.5910938147; 3.26877002882
54118;CHARENCY-VEZIN;49.4847390739; 5.51467592253
60115;BULLES;49.4569537729; 2.33518875415
22063;GOMMENEC'H;48.63755375; -3.04800718456
1212;LESCHEROUX;46.4114892731; 5.15107164478
41260;THOURY;47.6144182456; 1.61074783397
39124;CHAUMERGY;46.8433857304; 5.47463338737
2561;NOUVION-LE-VINEUX;49.5092763308; 3.605351266
21657;VAROIS-ET-CHAIGNOT;47.3554476666; 5.1255645784
64327;LECUMBERRY;43.0676995332; -1.1247200726
11029;BELCASTEL-ET-BUC;43.0278574306; 2.34929567664
65053;AVEUX;43.0085622623; 0.563703514189
58305;VAUCLAIX;47.2273609671; 3.81810901103
72240;PONCE-SUR-LE-LOIR;47.7736203084; 0.657052556948
35225;PLESDER;48.4180951281; -1.93003326564
59081;BEVILLERS;50.158314463; 3.39072994469
88086;CHAMP-LE-DUC;48.1923697643; 6.72962889202
24028;BEAUMONT-DU-PERIGORD;44.773801258; 0.75409629331
24053;BOULAZAC;45.1737726952; 0.769368950586
19031;BRIVE-LA-GAILLARDE;45.1435830664; 1.51936836063
81014;ANGLES;43.550474503; 2.58241545036
7315;LA SOUCHE;44.6277336502; 4.16243697678
6109;LA ROQUETTE-SUR-VAR;43.8332735566; 7.20466243305
19260;SIONIAC;44.9776918533; 1.80010891382
65164;ESCOUBES-POUTS;43.1066062315; 0.0291146800461
65435;SOULOM;42.9498367638; -0.0729862244782
81308;VALENCE-D'ALBIGEOIS;44.0155454064; 2.3857453557
36165;POULIGNY-SAINT-PIERRE;46.684081947; 1.04652871345
21032;AUBIGNY-LA-RONCE;46.9880450918; 4.59634588492
57623;SAINT-QUIRIN;48.5845453315; 7.11411356549
3075;CHEZELLE;46.2129757558; 3.11154820906
37263;TRUYES;47.2855863976; 0.851603945631
22148;MERILLAC;48.249384359; -2.39127521375
37137;LUBLE;47.5273559572; 0.255884396012
88310;MONTHUREUX-SUR-SAONE;48.0275487639; 5.96711970702
72064;LA CHAPELLE-HUON;47.8558757031; 0.718983213265
56118;LOCMIQUELIC;47.7303087589; -3.32842997885
62326;FAVREUIL;50.1256507438; 2.85908637048
22232;PLOURHAN;48.6312552228; -2.88203367765
55118;CLERY-LE-GRAND;49.3592013064; 5.14431610293
51311;JUSSECOURT-MINECOURT;48.7925796867; 4.78085431604
14727;VAUBADON;49.2037525181; -0.83614359794
10145;FAUX-VILLECERF;48.3298226873; 3.7399683031
1418;THIL;45.8169214201; 5.0184098869
14301;GIBERVILLE;49.1781576948; -0.285160708636
25456;PLAIMBOIS-DU-MIROIR;47.1947537606; 6.64914884876
23055;CHATELARD;45.963784452; 2.46736302039
14113;BURCY;48.8694012678; -0.805250021351
65253;LAMARQUE-RUSTAING;43.2770067649; 0.294662608938
46165;LAVERGNE;44.8015351339; 1.76588588621
31455;RIEUX-VOLVESTRE;43.2555733864; 1.20637769393
44054;ERBRAY;47.6690929055; -1.32185881383
33072;BRANNENS;44.5220010151; -0.152201164676
67032;BERNARDVILLE;48.3696169477; 7.40684055557
31282;LAUNAGUET;43.6700766081; 1.45516003737
16086;CHASSENON;45.8513916699; 0.773197167344
50140;CONTRIERES;48.9862200698; -1.42923558899
44123;PIERRIC;47.6890990862; -1.77486264797
60098;BOUVRESSE;49.6514305652; 1.75717052982
64350;LOUHOSSOA;43.3122720751; -1.34791351208
65427;SIRADAN;42.9698474653; 0.614553890336
62662;POLINCOVE;50.8615356416; 2.10891305299
63083;CHANAT-LA-MOUTEYRE;45.825281343; 3.00698253027
35296;SAINT-MEDARD-SUR-ILLE;48.2728481526; -1.67038135479
61146;DOMPIERRE;48.6368158106; -0.5529421904
59213;ESTOURMEL;50.1518286613; 3.32132515587
39343;MONNETAY;46.4576810006; 5.51067177235
2142;CASTRES;49.8013894137; 3.25325245088
69144;NUELLES;45.8480978251; 4.62716352107
68129;HEIMSBRUNN;47.7248268389; 7.21972228432
14703;TOURNEBU;48.9633348663; -0.326299876801
2255;CYS-LA-COMMUNE;49.3837163848; 3.57235420125
15100;LAVEISSENET;45.077034187; 2.87823772951
2A139;LECCI;41.6654830708; 9.31906773443
10274;ORVILLIERS-SAINT-JULIEN;48.4387695312; 3.82249131327
58096;DEVAY;46.8052157107; 3.54237937997
8170;FLEIGNEUX;49.7761707649; 4.96364089015
68315;SOULTZ-HAUT-RHIN;47.8827772059; 7.17897878271
24198;LA GONTERIE-BOULOUNEIX;45.381722826; 0.58447803795
64198;DENGUIN;43.3708216546; -0.500350227226
59267;GONNELIEU;50.059740161; 3.15907798363
55055;BLANZEE;49.1603955281; 5.53647182641
21152;CHATEAUNEUF;47.2193918621; 4.65146586699
54522;THOREY-LYAUTEY;48.4447902824; 6.03226525963
41104;HUISSEAU-SUR-COSSON;47.5946124012; 1.45427249126
79243;SAINT-COUTANT;46.2229123339; 0.00585913479042
45006;ARDON;47.7881590342; 1.88281454667
82035;CAUMONT;44.0211223113; 0.9973632278
60602;SAINT-VALERY;49.7249107248; 1.72911335468
62281;ECHINGHEN;50.7013312992; 1.65483173967
50487;SAINT-JAMES;48.5257483373; -1.32634914406
73330;YENNE;45.7020470491; 5.7646557504
19033;BUGEAT;45.5900445661; 1.93002669773
42141;MARS;46.1494620298; 4.2514137726
47118;HAUTESVIGNES;44.4602853307; 0.347089526942
54394;MURVILLE;49.3429418953; 5.83086554021
63202;MADRIAT;45.4353691789; 3.175781685
59407;MONCHAUX-SUR-ECAILLON;50.2838656974; 3.4581039292
2188;CHIGNY;49.9298846139; 3.77489645427
59145;CHEMY;50.5317873736; 2.99537239927
49331;SEGRE;47.7016654227; -0.863354104119
69059;CIVRIEUX-D'AZERGUES;45.854953276; 4.71130995652
2533;MURET-ET-CROUTTES;49.2781417953; 3.43464742094
77141;COUTEVROULT;48.8533091691; 2.8480997097
76337;GUILMECOURT;49.9629464891; 1.30311177286
57367;KLANG;49.3187329539; 6.37045880316
60514;PREVILLERS;49.6174288468; 1.99964588625
41249;SOUESMES;47.4571829313; 2.17085302343
70583;VY-LES-FILAIN;47.5064123545; 6.1953048468
72245;PREVAL;48.2266918238; 0.619955132757
15137;MOUSSAGES;45.2336429755; 2.47256542244
68032;BERRWILLER;47.8459225933; 7.21845369299
21051;BAULME-LA-ROCHE;47.3480241996; 4.79422345686
14483;OUFFIERES;49.0248508277; -0.488986897039
56007;AURAY;47.6677057368; -2.99041112225
25453;PIERREFONTAINE-LES-VARANS;47.2194158941; 6.5503792835
32225;MALABAT;43.431964924; 0.19281822284
10115;CRENEY-PRES-TROYES;48.342847974; 4.13898615195
89379;SAVIGNY-EN-TERRE-PLAINE;47.4935874843; 4.08358510886
64313;LANTABAT;43.2575328584; -1.12843928405
59581;STEENWERCK;50.6864176007; 2.76933714516
25542;SERRE-LES-SAPINS;47.2393718046; 5.9349388655
53091;DESERTINES;48.4739929091; -0.875711222537
11263;NEBIAS;42.8902940685; 2.10479303783
65229;ILHEU;42.9961638122; 0.601486255429
59265;GOMMEGNIES;50.2650047987; 3.70836085584
31540;SEGREVILLE;43.4914303481; 1.74727223861
56176;PLUNERET;47.6782099916; -2.9456811423
71420;SAINT-GERMAIN-DU-PLAIN;46.6944314945; 4.98395008765
88355;PORTIEUX;48.3478769237; 6.35610035139
16337;SAINT-MAURICE-DES-LIONS;45.9687818149; 0.700155863505
24095;CHALAIS;45.5032613972; 0.940330298311
1134;CROTTET;46.283072336; 4.87747971182
39466;ROSAY;46.5343336422; 5.45282636433
60627;TARTIGNY;49.6347175976; 2.36247535718
72050;BRULON;47.9808104506; -0.230196324503
50537;SAINT-PIERRE-DE-COUTANCES;49.0395774631; -1.43513976797
39356;MONTIGNY-SUR-L'AIN;46.7050355286; 5.79177737951
8393;SAINT-PIERRE-A-ARNES;49.2962803328; 4.46414717799
62137;BLANGERVAL-BLANGERMONT;50.3244181723; 2.22103571725
30092;CONNAUX;44.0769164231; 4.59924544378
67202;HOCHFELDEN;48.7558373026; 7.56312887309
14724;VARAVILLE;49.2631541111; -0.145923580235
24535;SIMEYROLS;44.9148518315; 1.33870597483
50170;ECOQUENEAUVILLE;49.4001175585; -1.29251665338
67412;ROSSFELD;48.3321360807; 7.61305399839
89226;LIGNORELLES;47.8591784948; 3.72515040743
45144;FEROLLES;47.8252781829; 2.11682260412
51137;CHATILLON-SUR-MORIN;48.6976684127; 3.58856747174
26124;ETOILE-SUR-RHONE;44.8313893504; 4.87476252885
67370;PETERSBACH;48.8771297882; 7.27203976424
50533;SAINT-PATRICE-DE-CLAIDS;49.2275614672; -1.44033380334
36246;VILLIERS;46.8845013105; 1.19883846025
72336;SOLESMES;47.8443845125; -0.280679742039
35283;SAINT-JEAN-SUR-VILAINE;48.1210316467; -1.34032525907
16084;CHARRAS;45.5444379086; 0.428737132242
38239;MOIRANS;45.3189486892; 5.56212081976
56037;LA CHAPELLE-CARO;47.8672760996; -2.40625763508
89067;CEZY;47.9958317123; 3.31537354037
48168;SAINT-LEGER-DE-PEYRE;44.604203879; 3.30637134661
73269;SAINT-PAUL;45.6725948958; 5.79201634508
11189;LAPRADE;43.440478585; 2.25257707156
89163;LA FERTE-LOUPIERE;47.8869741845; 3.23991180374
58058;LA CHAPELLE-SAINT-ANDRE;47.4008356839; 3.32446330279
71447;SAINT-MARD-DE-VAUX;46.8135328184; 4.67179721319
32436;SOLOMIAC;43.8030207039; 0.886775990796
19249;SAINT-YRIEIX-LE-DEJALAT;45.4549609024; 1.96986165302
31511;SAINT-PIERRE;43.6368366534; 1.64168080442
72025;BAZOUGES-SUR-LE-LOIR;47.6856990287; -0.172011886332
57567;REMELFANG;49.268230209; 6.51275682105
86087;CRAON;46.7719644602; 0.0146641408168
27664;LE TRONQUAY;49.4375421734; 1.45434227209
33122;CESTAS;44.7237410966; -0.726825410115
63142;ECHANDELYS;45.5469529567; 3.53131238334
54164;DOMMARIE-EULMONT;48.4188444758; 6.03214502759
60319;LA HOUSSOYE;49.3541163748; 1.9482489871
57225;FONTENY;48.8761779555; 6.47830275914
76711;LE TREPORT;50.053376282; 1.372617602
16003;AGRIS;45.7764888287; 0.328082067918
12291;VERRIERES;44.2168374801; 3.05097559285
67507;VILLE;48.3429794644; 7.30342869358
46141;LACAM-D'OURCET;44.8421863902; 2.01143660034
63354;SAINT-GERVAIS-D'AUVERGNE;46.0189715375; 2.83089717473
78324;JOUY-MAUVOISIN;48.9744681009; 1.64659377662
46021;BEDUER;44.5711043331; 1.92666440325
68307;SEWEN;47.8075577891; 6.88027043152
43197;SAINT-JEAN-DE-NAY;45.0653883769; 3.68972683982
77306;MONTEREAU-SUR-LE-JARD;48.5963121616; 2.67243506612
80443;HORNOY-LE-BOURG;49.8474299808; 1.90289897698
73094;CREST-VOLAND;45.7896752359; 6.51608069874
51048;BELVAL-SOUS-CHATILLON;49.125456085; 3.85394695704
73271;SAINT-PIERRE-D'ALVEY;45.6259001138; 5.73939754416
72123;DUREIL;47.8298601879; -0.134234804932
51210;DIZY;49.0705211181; 3.97084205034
11245;MONTGAILLARD;42.9046014463; 2.62879585851
61463;LA SAUVAGERE;48.6127467342; -0.435491688539
6154;VALDEROURE;43.7942044466; 6.71003568639
70355;MONTARLOT-LES-RIOZ;47.4176155928; 5.99917917055
57073;BETTING;49.1299695233; 6.81296157618
79231;ROMANS;46.3564424718; -0.228510254531
64486;SAINT-JEAN-POUDGE;43.5282173941; -0.185319400051
26279;LA ROCHETTE-DU-BUIS;44.2610706065; 5.42166701119
14409;MERVILLE-FRANCEVILLE-PLAGE;49.2723390059; -0.201985643028
62903;ZOTEUX;50.614922981; 1.88746444712
2A163;MONACIA-D'AULLENE;41.5249319364; 9.01194250381
27165;CONCHES-EN-OUCHE;48.9547259686; 0.93199579313
42271;SAINT-PAUL-EN-JAREZ;45.4705874641; 4.57893504841
48128;RIMEIZE;44.764646204; 3.31719285575
34269;SAINT-JEAN-DE-MINERVOIS;43.3998259676; 2.8186318647
33029;LE BARP;44.6268462922; -0.746697894211
82142;POMPIGNAN;43.8196347492; 1.32921957456
16056;BOURG-CHARENTE;45.6659937822; -0.222233070692
77513;VILLENOY;48.9414484528; 2.85149852192
21391;MARSANNAY-LE-BOIS;47.4402798544; 5.09615121255
92047;MARNES-LA-COQUETTE;48.830271264; 2.16647261735
55169;ECOUVIEZ;49.5332207163; 5.45169555956
54597;XIROCOURT;48.4327331153; 6.17625721621
76757;YVECRIQUE;49.6892609326; 0.807122350958
70181;COURCUIRE;47.3474181199; 5.82794656469
9319;UNZENT;43.1713840996; 1.53294419243
59669;ZUYTPEENE;50.7918240712; 2.42330162819
35255;SAINT-BENOIT-DES-ONDES;48.613788991; -1.86036735113
15081;JOU-SOUS-MONJOU;44.9403094709; 2.66250496336
37179;PARCAY-MESLAY;47.4520948829; 0.742956066986
79127;LA FOYE-MONJAULT;46.1870040122; -0.533179423966
35191;MONTOURS;48.4485377499; -1.30298513536
32350;ROQUEPINE;43.9083463279; 0.468129432409
88132;DEYVILLERS;48.1965304597; 6.52329047209
17077;CERCOUX;45.1273503043; -0.207698631448
65016;ANTIST;43.1198806357; 0.135249572657
10212;MACHY;48.1456167821; 4.03573129763
55316;MANGIENNES;49.3459600586; 5.52912697423
37007;ASSAY;47.0676563174; 0.276362462975
51347;MAREUIL-SUR-AY;49.0453428007; 4.04051229539
55184;EUVILLE;48.7444024501; 5.64512103609
46063;CASTELNAU-MONTRATIER;44.2618964554; 1.34787377419
15089;LADINHAC;44.767177873; 2.50974723754
64069;ASTE-BEON;43.0305496433; -0.397677517551
67554;WOLXHEIM;48.5703058902; 7.5074599373
2610;POMMIERS;49.3921873782; 3.27884937169
14179;CORDEBUGLE;49.1134254456; 0.379835846184
22225;PLOUMAGOAR;48.5304587178; -3.109565675
67122;WANGENBOURG-ENGENTHAL;48.6212665024; 7.30505408726
71063;BROYE;46.888541214; 4.30809477889
49207;MONTFORT;47.1888469498; -0.215553855338
39409;PEINTRE;47.1980003971; 5.47297179075
52233;GUYONVELLE;47.8592079373; 5.70929745857
71498;SANTILLY;46.6204214776; 4.70493603274
66234;LE VIVIER;42.7641929196; 2.44351748783
72278;SAINT-DENIS-D'ORQUES;48.0311233627; -0.275648536634
67436;SAULXURES;48.3924491684; 7.1235892563
63457;VIC-LE-COMTE;45.6440673683; 3.24047430326
80314;FLERS;50.0506500725; 2.81773522664
31447;RAZECUEILLE;42.9630940421; 0.81413604771
17174;GENOUILLE;46.0190321633; -0.782334091478
7169;OZON;45.1631858608; 4.79658585866
63011;ARS-LES-FAVETS;46.2002650376; 2.74850375721
64346;LOMBIA;43.3292789984; -0.132750238483
9171;LORDAT;42.7985041105; 1.78455165815
64457;POURSIUGUES-BOUCOUE;43.5541576599; -0.378415416336
86097;LA FERRIERE-AIROUX;46.314702219; 0.410169403007
49311;SAINT-PHILBERT-DU-PEUPLE;47.3908362181; -0.0435917623377
57280;GUNTZVILLER;48.7041811617; 7.16303879874
17137;LA CROIX-COMTESSE;46.0824925841; -0.504784352089
86040;LA BUSSIERE;46.6315763741; 0.82155717047
55520;TROUSSEY;48.701256647; 5.69348408341
6134;SERANON;43.7656662777; 6.6904329696
51549;SOMME-YEVRE;48.9445152692; 4.74104866802
49220;MORANNES;47.725500783; -0.403190245491
2242;CROUTTES-SUR-MARNE;48.9791200153; 3.24757642131
53203;SAINT-BRICE;47.8614989489; -0.439457256097
19111;LAVAL-SUR-LUZEGE;45.2541335786; 2.14246404167
18039;BUE;47.3103309784; 2.79357015319
9285;SEIX;42.8178331497; 1.14814568291
71482;SAINT-SYMPHORIEN-DE-MARMAGNE;46.8287800978; 4.31825474649
35326;SENS-DE-BRETAGNE;48.3367315734; -1.55392717615
80157;BUSSY-LES-POIX;49.8174206612; 2.01371818079
56252;LE TOUR-DU-PARC;47.5293514837; -2.6538249578
52353;NOGENT;48.037521428; 5.36502804198
27336;LA HEUNIERE;49.0649738684; 1.41307259092
12186;POUSTHOMY;43.8560294243; 2.59842075923
39326;MESNOIS;46.5942298159; 5.67721332871
63035;BEAUREGARD-VENDON;45.9656649406; 3.11312148208
34284;SAINT-PONS-DE-THOMIERES;43.4788345407; 2.74852691953
45329;TRIGUERES;47.9392051381; 2.99479900894
29228;PRIMELIN;48.0287724431; -4.60550316515
66107;MAURY;42.8152827939; 2.61292653306
80479;LIGNIERES-CHATELAIN;49.7760927135; 1.86331037003
63141;DURTOL;45.7965429295; 3.05159715299
25562;THULAY;47.4291611668; 6.86009658737
62831;TROISVAUX;50.4116603363; 2.34375575662
42192;ROZIER-COTES-D'AUREC;45.3763346252; 4.1143178936
59450;ORS;50.1050821078; 3.6311053836
88353;PONT-LES-BONFAYS;48.1672898081; 6.14266150561
76085;BERTREVILLE-SAINT-OUEN;49.8123112354; 1.04321401128
11251;MONTLAUR;43.1285553787; 2.56525134026
77271;MAISONCELLES-EN-GATINAIS;48.1827929678; 2.6212297089
25307;LES HOPITAUX-NEUFS;46.7853001951; 6.39130917442
25101;BURGILLE;47.2616950181; 5.7819919512
61504;VILLEBADIN;48.7771847088; 0.155000763874
88381;RELANGES;48.1117050113; 6.0162884596
17189;HIERS-BROUAGE;45.8435716434; -1.05203009674
55366;VAL-D'ORNAIN;48.8072006792; 5.08545079895
21673;VEUVEY-SUR-OUCHE;47.182310206; 4.71718039392
80709;SAINT-MAULVIS;49.9023922509; 1.82631005356
3316;VILLENEUVE-SUR-ALLIER;46.6741150218; 3.25033675035
71393;SAINT-BONNET-DE-CRAY;46.202568549; 4.16340067325
53117;HOUSSAY;47.9107835548; -0.744633552583
47286;SAUMEJAN;44.2320209567; -0.0209875332561
66209;THUES-ENTRE-VALLS;42.5040638697; 2.22986633977
50648;YVETOT-BOCAGE;49.4960572995; -1.51043693291
8476;VILLERS-DEVANT-LE-THOUR;49.5043027928; 4.076652193
9102;COUTENS;43.0675702569; 1.82251157352
3137;LANGY;46.2728774328; 3.46181153336
25042;LE BARBOUX;47.1217397037; 6.72580320278
88516;VITTEL;48.2012893937; 5.95449403029
23143;NOTH;46.2422286438; 1.58264517372
49063;CHALONNES-SUR-LOIRE;47.3494785235; -0.772675582911
3265;SALIGNY-SUR-ROUDON;46.4629712549; 3.75125723141
8053;BAZEILLES;49.6774342411; 4.98515455089
9167;LEZAT-SUR-LEZE;43.280210332; 1.34476803133
76641;SAINT-PIERRE-LE-VIEUX;49.8488151047; 0.885165037605
65433;SOUES;43.2056090738; 0.0994897363458
12156;MONTPEYROUX;44.6349727499; 2.78247380179
81173;MONTCABRIER;43.6216995124; 1.73631591494
38348;RUY;45.590349924; 5.344319552
24279;MONMARVES;44.7052439204; 0.611301484868
45291;SAINT-MARTIN-SUR-OCRE;47.6468281409; 2.64446873404
54458;REPAIX;48.6128594878; 6.83000371109
86098;FLEIX;46.5580414765; 0.747824458548
55179;ERNEVILLE-AUX-BOIS;48.7418948425; 5.41343354401
35018;LA BAZOUGE-DU-DESERT;48.4439442954; -1.10950795869
74213;POISY;45.9189291023; 6.06312526002
3154;LUNEAU;46.3662876048; 3.95278636616
70214;EQUEVILLEY;47.7814086958; 6.18035892728
37040;BRIZAY;47.0963197931; 0.38766475605
81123;LACAPELLE-SEGALAR;44.1174207039; 1.99686305545
60040;BAILLEUL-LE-SOC;49.4206214218; 2.58376325171
33335;LE POUT;44.8044080843; -0.357222869901
64415;NAVAILLES-ANGOS;43.4150286053; -0.342429253025
24463;SAINT-MEDARD-D'EXCIDEUIL;45.3470023438; 1.0861340351
33533;TOULENNE;44.5644281696; -0.275202743497
71080;CHAMPAGNY-SOUS-UXELLES;46.5792196401; 4.74765167584
62623;NOUVELLE-EGLISE;50.9318131132; 2.0456999898
68320;SPECHBACH-LE-HAUT;47.6858659395; 7.21898279499
3046;BUXIERES-LES-MINES;46.4698341323; 2.95493090181
22323;SAINT-POTAN;48.5574203635; -2.29323126178
81285;SERENAC;43.9589302642; 2.32732633415
58122;GARCHY;47.2771676376; 3.05332788878
28252;MIERMAIGNE;48.2488776509; 0.99749026867
68176;LARGITZEN;47.561066335; 7.19235370252
73071;CHAMPAGNY-EN-VANOISE;45.450515364; 6.77846464114
27107;BOURNEVILLE;49.39187586; 0.620240697299
13114;VENTABREN;43.5422528534; 5.30622321985
51069;BLIGNY;49.1943978535; 3.85996649455
51196;CRAMANT;48.9875700234; 4.00091885006
36098;LIZERAY;46.9850879886; 1.9034021028
80321;FOLLEVILLE;49.6776909768; 2.3550476043
16294;SAINT-AMANT;45.4047927115; 0.171291549718
1039;BEON;45.8568920052; 5.75220315052
37104;ESVRES;47.2932820552; 0.79068276272
65465;VIELLE-AURE;42.8492746267; 0.208155528446
87119;PIERRE-BUFFIERE;45.6911141635; 1.36024166965
21245;EPAGNY;47.4523461757; 5.04973678654
54602;HAN-DEVANT-PIERREPONT;49.3965119718; 5.71113429533
51040;BASSUET;48.8018029229; 4.67029926523
33376;SAINT-AUBIN-DE-MEDOC;44.9333497941; -0.748518197327
89076;CHAMPLOST;48.04194277; 3.65112821116
25290;LA GRANGE;47.284355739; 6.67077242827
78217;EPONE;48.9471759683; 1.81269584925
89035;BELLECHAUME;48.053614787; 3.58244232303
23235;SAINT-PRIEST-LA-FEUILLE;46.1984256064; 1.53565448112
62743;SAINTE-AUSTREBERTHE;50.3579438229; 2.04425580197
61318;ORIGNY-LE-BUTIN;48.3789608192; 0.473135967271
24097;CHAMPAGNE-ET-FONTAINE;45.4290860632; 0.336264937907
28193;HAVELU;48.7877502403; 1.53388014582
85154;MOUILLERON-EN-PAREDS;46.6612700667; -0.846784201071
32152;HAGET;43.4164577961; 0.161717343606
81275;SALLES;44.0752776233; 2.04296724146
41017;BINAS;47.906478049; 1.46560319599
61415;SAINT-LEGER-SUR-SARTHE;48.495044339; 0.316782029384
82107;MAUMUSSON;43.9122841203; 0.906121220446
31530;SANA;43.2274229505; 1.01117765255
3283;THIEL-SUR-ACOLIN;46.5311020411; 3.57823760672
15168;RUYNES-EN-MARGERIDE;45.0046123239; 3.22362001629
52285;LEUCHEY;47.7280758728; 5.21503608334
2A186;OLIVESE;41.8404362861; 9.06885180924
14762;VIRE;48.8512498219; -0.889601911342
89359;SAINT-MAURICE-AUX-RICHES-HOMMES;48.3293750857; 3.49859430256
30200;POMPIGNAN;43.8962167009; 3.85986243613
44217;VIGNEUX-DE-BRETAGNE;47.3196231868; -1.72042944177
67295;MITTELBERGHEIM;48.3941967219; 7.44334636249
67003;ALBE;48.3614659809; 7.33650221165
80719;SAINTE-SEGREE;49.7602729981; 1.91464272826
59328;LAMBERSART;50.6522053005; 3.02491174276
29081;HUELGOAT;48.3615514061; -3.75817537147
31276;LARROQUE;43.1954638712; 0.613620624172
84063;LAMOTTE-DU-RHONE;44.2761614284; 4.67510511716
87061;DROUX;46.1652051939; 1.14857191289
78522;ROCHEFORT-EN-YVELINES;48.5924280148; 1.97977823093
65282;LOUDENVIELLE;42.7300216017; 0.432583717897
74065;CHAUMONT;46.044949243; 5.94515955142
55216;GOURAINCOURT;49.298652581; 5.66811972316
68051;BREITENBACH-HAUT-RHIN;48.0110195796; 7.10491597545
58272;SARDY-LES-EPIRY;47.1956477659; 3.68999413618
78073;BOIS-D'ARCY;48.8044185716; 2.01911294303
59384;MAROILLES;50.1319269189; 3.75814901282
8220;HAUVINE;49.3159803218; 4.41170841421
25031;AUDINCOURT;47.4811676376; 6.85493983157
76304;GONFREVILLE-CAILLOT;49.6520308002; 0.440253516483
62772;SALPERWICK;50.768362521; 2.21963774504
71457;SAINT-MARTIN-EN-GATINOIS;46.9431147927; 5.00729435499
63458;VILLENEUVE;45.4775997565; 3.18746036905
52536;VILLIERS-LES-APREY;47.7515735752; 5.21966019441
82122;MONTBARLA;44.2136604431; 1.08193556134
38080;CHARANCIEU;45.5205135437; 5.57906529008
4072;DRAIX;44.1299391525; 6.37179977607
2654;ROMERY;49.8882844958; 3.73266627848
25391;MONT-DE-LAVAL;47.161609954; 6.63636805448
56231;SAINT-NOLFF;47.6984675237; -2.66583210925
26234;PIEGROS-LA-CLASTRE;44.6852387812; 5.09750399955
28257;MONDONVILLE-SAINT-JEAN;48.3631185129; 1.82435785403
49094;CHENEHUTTE-TREVES-CUNAULT;47.3060110281; -0.191642729085
43118;LAVOUTE-CHILHAC;45.1559334997; 3.41127089302
15269;BESSE;45.1012134642; 2.35475637278
25246;FONTAINE-LES-CLERVAL;47.4214306838; 6.46911668275
74180;MESSERY;46.3456509574; 6.29932822194
3118;GANNAT;46.0984192073; 3.17790823629
9026;AUDRESSEIN;42.9305094861; 1.02016808143
89418;TONNERRE;47.8411044504; 3.97744216729
8039;AVAUX;49.4659424316; 4.06887306041
52039;BAUDRECOURT;48.3950398869; 4.96825290253
60004;ACHY;49.5562211633; 1.97185766368
35172;MEILLAC;48.4207786657; -1.82223857468
76324;GREGES;49.9239147475; 1.14871215445
62433;HERICOURT;50.3379712527; 2.24874588384
67333;NIEDERSOULTZBACH;48.8506235374; 7.4715582868
57393;LENGELSHEIM;49.1061017044; 7.40784564879
71280;MARLY-SOUS-ISSY;46.7292090902; 3.93392160044
72040;LA BOSSE;48.1635194155; 0.546593401051
67230;KALTENHOUSE;48.7902364903; 7.83303517468
6036;CASTILLON;43.8361451105; 7.46455247487
34095;FABREGUES;43.5344767016; 3.77192951891
18224;SAINT-MARTIN-DES-CHAMPS;47.173174971; 2.93500889323
58125;GIEN-SUR-CURE;47.1456570657; 4.09021461672
76006;AMFREVILLE-LES-CHAMPS;49.6985248041; 0.826235482496
91414;MONNERVILLE;48.3475778316; 2.03756140392
14714;LE TRONQUAY;49.2271134585; -0.819798634317
60197;DIEUDONNE;49.241132253; 2.24030627221
23142;NEOUX;45.9157589917; 2.26372873002
69233;SAINT-ROMAIN-AU-MONT-D'OR;45.8355530258; 4.82084858556
80035;AUBERCOURT;49.8378941809; 2.54731400317
63404;SAINT-YVOINE;45.5750111656; 3.22572717039
24260;MAUZAC-ET-GRAND-CASTANG;44.8823545617; 0.780345381452
12181;PEYRUSSE-LE-ROC;44.5026320672; 2.13437459711
73045;LE BOIS;45.4840008846; 6.49947186126
31464;SABONNERES;43.4686663563; 1.05725626778
72345;SURFONDS;47.979285909; 0.462514595008
37243;SAVONNIERES;47.3465342134; 0.558778925825
79163;MAIRE-LEVESCAULT;46.1564138724; 0.0765658334292
10372;SOULAINES-DHUYS;48.3784420023; 4.71797387888
67178;GUNGWILLER;48.8780997481; 7.15256188284
62488;LANDRETHUN-LES-ARDRES;50.816140117; 1.96682595063
76397;LONGUEVILLE-SUR-SCIE;49.7957426692; 1.10718815906
79077;LA CHAPELLE-THIREUIL;46.5528411704; -0.552963332142
74242;SAINT-JORIOZ;45.822898265; 6.14963663908
55444;ROUVROIS-SUR-MEUSE;48.9500686957; 5.52570837054
27297;GRANDVILLIERS;48.8083735212; 1.07572686226
39380;NANCUISE;46.4735098453; 5.52975664064
30060;CAISSARGUES;43.7920118667; 4.39549848347
27005;AILLY;49.1575246748; 1.24431447068
2756;URVILLERS;49.7897507931; 3.31629966887
60638;THURY-SOUS-CLERMONT;49.3584817285; 2.32859309927
77139;COURTRY;48.9167295268; 2.60299399479
47022;BAZENS;44.2679299357; 0.426598073489
23074;LE DONZEIL;46.03538708; 1.98532939253
70342;MERCEY-SUR-SAONE;47.5239276742; 5.72810930864
38392;SAINT-HILAIRE-DE-BRENS;45.6755777946; 5.2906631807
69122;LUCENAY;45.9134609573; 4.70939043822
2B010;ALGAJOLA;42.6050790894; 8.85735931464
79211;PIOUSSAY;46.0804577028; 0.0349880081083
51507;SAINTE-MENEHOULD;49.0865774658; 4.94259439229
76188;COTTEVRARD;49.639544; 1.22434473478
67306;MUHLBACH-SUR-BRUCHE;48.5125214509; 7.31212371742
64028;ANOYE;43.3965266852; -0.136280497719
34208;POPIAN;43.6241428585; 3.53329416559
21048;BARGES;47.2092455725; 5.05951734595
7193;ROCHER;44.5805813909; 4.2790675943
84066;LIOUX;43.9793335094; 5.30939885306
76031;AUBERVILLE-LA-CAMPAGNE;49.5357823366; 0.595896350685
83044;COMPS-SUR-ARTUBY;43.7035520107; 6.50293185659
33408;SAINT-GENES-DE-LOMBAUD;44.7540640198; -0.378689815135
51570;LE THOULT-TROSNAY;48.8625433145; 3.68421131138
55570;VILLOTTE-SUR-AIRE;48.8575993984; 5.35419334822
31159;LE CUING;43.1471175091; 0.611931912745
19149;NEUVILLE;45.1095698093; 1.84454335261
32309;PELLEFIGUE;43.4789558709; 0.79093287265
50225;LE GUISLAIN;48.971687343; -1.21557798635
50488;SAINT-JEAN-DE-DAYE;49.231738279; -1.13630108744
31136;CEPET;43.7456992513; 1.43660975601
29017;BRELES;48.4709032483; -4.68640383039
73214;ROCHEFORT;45.5807306821; 5.71351336836
36090;JEU-MALOCHES;47.0475431378; 1.44169166133
70327;MALANS;47.2677473126; 5.59612785813
45155;GIEN;47.71227944; 2.66549550204
35297;SAINT-MEEN-LE-GRAND;48.1925581351; -2.19497591455
86285;VERRIERES;46.4029509232; 0.597094727763
50123;LA CHAPELLE-EN-JUGER;49.1327048085; -1.21267909153
7309;SATILLIEU;45.1414705974; 4.58761138968
73302;LA TRINITE;45.5038702551; 6.15205404986
62068;AYETTE;50.1699222305; 2.73263282673
77243;LAGNY-SUR-MARNE;48.8730701858; 2.70978081313
64128;BILHERES;43.0663758418; -0.482744274023
10203;LONGCHAMP-SUR-AUJON;48.1525191193; 4.81837981298
15015;AUZERS;45.2759935312; 2.46518628982
47025;BEAUVILLE;44.2747735697; 0.896478238641
49058;LES CERQUEUX;47.0057486644; -0.641214387414
14511;PONT-BELLANGER;48.9351528941; -0.982806859823
49019;BAUNE;47.5102759671; -0.339256447108
62147;BOIRY-SAINTE-RICTRUDE;50.2004598383; 2.74639343282
30099;CROS;44.0012514545; 3.82331277161
79292;SAINTE-RADEGONDE;46.9906438525; -0.25058352877
30111;FOISSAC;44.0356153911; 4.2996904256
80330;FORCEVILLE-EN-VIMEU;49.9618487041; 1.7994141824
74123;FAVERGES;45.749197611; 6.2852126691
80521;MAUREPAS;49.9853157676; 2.85285166012
59576;SPYCKER;50.9751405786; 2.31360058844
18212;SAINT-GERMAIN-DES-BOIS;46.8892474462; 2.45128555429
57761;ZILLING;48.7867266822; 7.21030213577
70277;GRANGES-LE-BOURG;47.5773603894; 6.58761184048
2B365;SAN-GAVINO-DI-FIUMORBO;41.9714498244; 9.24775602009
24094;CHALAGNAC;45.0928504071; 0.680786253441
41202;SAINT-AVIT;48.0921152856; 0.912928613276
16172;JUILLAGUET;45.4810175089; 0.220482777083
86225;SAINT-JEAN-DE-SAUVES;46.8393708515; 0.0880509960566
50465;SAINT-EBREMOND-DE-BONFOSSE;49.0726923267; -1.14523794079
51465;ROMERY;49.0965097553; 3.91290546283
28040;BILLANCELLES;48.4938554286; 1.21326841082
45137;ESCRENNES;48.1364055687; 2.18433088094
59635;WAMBAIX;50.1283412382; 3.30897119661
22072;GURUNHUEL;48.5082694097; -3.28883122732
54115;CHAMPIGNEULLES;48.7209128078; 6.12290248432
25601;VERCEL-VILLEDIEU-LE-CAMP;47.1891393068; 6.38184480034
21319;IZEURE;47.1662982943; 5.12029891779
60232;FERRIERES;49.5890936598; 2.51315398391
79188;MOUTIERS-SOUS-CHANTEMERLE;46.6878996227; -0.624436667699
85141;MENOMBLET;46.7301338667; -0.728654955878
76250;ETAINHUS;49.5667402554; 0.309275010904
38271;MURIANETTE;45.1884497097; 5.82573215499
25564;TORPES;47.1724802997; 5.88041302138
9200;MONTBEL;42.9784689513; 1.96705977285
5042;LA CLUSE;44.6423278601; 5.84169142897
41157;MUR-DE-SOLOGNE;47.4172155186; 1.59888181618
16044;BIOUSSAC;46.0307876172; 0.270410745983
74210;PERRIGNIER;46.3062097696; 6.43566112571
2100;BONY;49.9908643724; 3.22116002448
77498;VIGNELY;48.9326287098; 2.81578532754
52159;CUVES;48.0947233015; 5.43400619127
34033;BOISSERON;43.7523646952; 4.07621075324
41268;VEILLEINS;47.4276616233; 1.6882174614
47227;RUFFIAC;44.368227915; 0.0368814395107
54311;LENONCOURT;48.6713494283; 6.30019640728
70207;ECHENOZ-LA-MELINE;47.593506841; 6.13717389546
21556;SAINT-LEGER-TRIEY;47.3166201603; 5.35525672839
55044;BELRAIN;48.8638222263; 5.30723615462
62821;TINGRY;50.6110233696; 1.72199394641
54125;CHENEVIERES;48.5218297908; 6.63786246234
32034;BAZUGUES;43.4509092165; 0.34216662442
46328;VARAIRE;44.3684009412; 1.71781204622
59565;SEPMERIES;50.2772551517; 3.56080213817
56195;LA ROCHE-BERNARD;47.5193208116; -2.30307422213
12091;DRULHE;44.4558448387; 2.13481083586
19276;UZERCHE;45.4238857521; 1.56525480659
24244;LOLME;44.7104272337; 0.846288269978
64234;GAROS;43.5068508348; -0.481505714885
70200;DAMPVALLEY-SAINT-PANCRAS;47.9127848555; 6.20068326227
49159;HUILLE;47.6551436907; -0.309834884442
78128;CERNAY-LA-VILLE;48.6696344922; 1.95970981041
2824;VORGES;49.5175796033; 3.65105369026
78104;BREUIL-BOIS-ROBERT;48.9436009662; 1.71471708447
70146;CHAUX-LES-PORT;47.7164049737; 6.0457583117
55315;MANDRES-EN-BARROIS;48.4962208596; 5.39267614836
51461;RILLY-LA-MONTAGNE;49.1634301759; 4.0458133231
27220;EPIEDS;48.9349153283; 1.39579544609
26047;BELLEGARDE-EN-DIOIS;44.5369730578; 5.43406204674
31200;FRONTIGNAN-DE-COMMINGES;42.9631400152; 0.665864279596
40263;SAINT-JEAN-DE-LIER;43.7848343729; -0.880086131984
76744;VILLERS-SOUS-FOUCARMONT;49.8254730877; 1.55839902863
88280;MADEGNEY;48.2854598939; 6.28777865457
17203;LANDRAIS;46.0695634718; -0.857047499487
72353;THELIGNY;48.1717914833; 0.785600114205
56075;GUER;47.9073328689; -2.12921667557
64307;LALONGUE;43.4812762295; -0.188843126276
73221;SAINT-ALBAN-DES-VILLARDS;45.314656637; 6.23573224312
77441;SAMOIS-SUR-SEINE;48.4550515717; 2.75291155262
57128;CHARLEVILLE-SOUS-BOIS;49.1959515116; 6.4063041025
17156;EXPIREMONT;45.3325890247; -0.374711458705
89223;LEZINNES;47.8039171738; 4.07106558888
84061;LAGARDE-PAREOL;44.2272154512; 4.85109427827
61450;SAINT-QUENTIN-DE-BLAVOU;48.4792330263; 0.418725497105
28270;MORIERS;48.2206945142; 1.44018817268
31324;MARTRES-TOLOSANE;43.2020024621; 1.00117227256
13090;SAINT-ANTONIN-SUR-BAYON;43.517185261; 5.59403460953
78455;NOISY-LE-ROI;48.8465154476; 2.05479110499
26342;SOLERIEUX;44.3477984022; 4.82557061801
45334;VIEILLES-MAISONS-SUR-JOUDRY;47.8838478178; 2.43774998138
82125;MONTECH;43.9524124123; 1.23764675579
87093;MASLEON;45.7667545003; 1.57463204916
35015;BALAZE;48.1777363541; -1.18302870433
8149;L'ECHELLE;49.8052823927; 4.48398953543
25161;CONSOLATION-MAISONNETTES;47.1545771077; 6.60275781844
81239;SAINT-AMANS-VALTORET;43.506155075; 2.50072448307
30309;SARDAN;43.8666268066; 4.03456687975
67467;SIEWILLER;48.8414802623; 7.20492965057
70144;CHAUVIREY-LE-VIEIL;47.7811083349; 5.75924398102
30293;SAINT-PRIVAT-DE-CHAMPCLOS;44.2763763526; 4.35555026236
27356;JONQUERETS-DE-LIVET;49.0197034176; 0.610824280405
45315;SULLY-SUR-LOIRE;47.7526229305; 2.35647713689
62354;FRENCQ;50.5617772282; 1.68949161438
4201;SAUMANE;44.0812808516; 5.68214602167
8124;CLAVY-WARBY;49.7451097313; 4.54792951567
62396;GUINECOURT;50.3477039372; 2.22804664838
39404;PANNESSIERES;46.6983683105; 5.59466589018
63144;EGLISENEUVE-D'ENTRAIGUES;45.4211832681; 2.82270295289
33171;FOSSES-ET-BALEYSSAC;44.5970944275; 0.0500249563956
32424;SEGOS;43.6299075167; -0.261024966204
89262;MOLOSMES;47.9022725609; 4.0235561506
76128;BOSVILLE;49.7629078501; 0.684228513933
21702;VILLEY-SUR-TILLE;47.5679614823; 5.1093341205
66183;SAINT-MARSAL;42.5276130849; 2.61404559524
23141;NAILLAT;46.258586675; 1.65007660909
24057;BOURG-DES-MAISONS;45.3372753112; 0.434494589359
44159;SAINT-FIACRE-SUR-MAINE;47.1431877393; -1.41565837757
18100;GENOUILLY;47.1905784621; 1.88477464044
61093;CHANU;48.7224631427; -0.672912176288
60433;MORTEFONTAINE-EN-THELLE;49.2651041736; 2.18912997448
11210;LUC-SUR-ORBIEU;43.1757442805; 2.78804456863
80775;VALINES;50.0793776169; 1.62717052139
28107;CORANCEZ;48.3673223163; 1.5147876149
2826;VOULPAIX;49.8387507375; 3.83266238617
34336;VILLENEUVE-LES-BEZIERS;43.3172489997; 3.28958494349
67148;FROHMUHL;48.9113095227; 7.27923351719
7241;SAINT-GERMAIN;44.5531057942; 4.44825609237
40062;CAMPET-ET-LAMOLERE;43.9152250646; -0.58964747466
70364;MONTJUSTIN-ET-VELOTTE;47.6187013351; 6.3745985909
15083;JUSSAC;44.9952366348; 2.41802314499
66166;SAHORRE;42.5235898496; 2.35864365675
30012;ARAMON;43.904199015; 4.68302001901
50048;BESLON;48.8582276716; -1.15769236289
59146;CHERENG;50.6108890768; 3.20972154636
50003;AGON-COUTAINVILLE;49.0388327181; -1.58144574808
37114;LA GUERCHE;46.893743302; 0.725400888064
12011;ARVIEU;44.1907834578; 2.66728393102
55153;DIEPPE-SOUS-DOUAUMONT;49.2195718638; 5.51909425729
67017;BAERENDORF;48.8306192171; 7.08989424787
55132;COUSANCES-LES-FORGES;48.6171588991; 5.0853615873
53048;CHAILLAND;48.2319686385; -0.868605352742
60013;ANGICOURT;49.3148919573; 2.50251888584
62181;BUCQUOY;50.1459428141; 2.69722641414
50173;EQUEURDREVILLE-HAINNEVILLE;49.6441465184; -1.67828720292
79279;SAINT-MARTIN-LES-MELLE;46.2262502573; -0.16852854296
25268;GERMEFONTAINE;47.2253724682; 6.48362626311
51184;COURDEMANGES;48.6799310548; 4.50944976193
52129;CIREY-SUR-BLAISE;48.3335754386; 4.93609411438
33358;ROMAGNE;44.7639270453; -0.204211440747
52271;LANQUES-SUR-ROGNON;48.0878260847; 5.36870154442
71358;PRESSY-SOUS-DONDIN;46.4761059444; 4.50397889767
33394;SAINT-EMILION;44.8999911844; -0.169955105989
14302;GLANVILLE;49.2767710581; 0.0750189891546
43247;TORSIAC;45.3520799718; 3.19806819425
21166;CHENOVE;47.2926136721; 5.00488353457
65374;PUYDARRIEUX;43.289930505; 0.40087886965
21537;SAFFRES;47.3662639449; 4.58064061534
67120;EICHHOFFEN;48.3784061586; 7.4410649341
27346;HOUVILLE-EN-VEXIN;49.2999641721; 1.35759066784
70082;BOUHANS-LES-MONTBOZON;47.4858934785; 6.28045727501
64540;URCUIT;43.4851399002; -1.35045650645
38183;GRANIEU;45.6003801471; 5.58926385249
38262;MORETEL-DE-MAILLES;45.3683971256; 6.00900895074
76730;VEAUVILLE-LES-QUELLES;49.7379926109; 0.711257382258
38156;LES EPARRES;45.5380944764; 5.29246902351
14026;AUDRIEU;49.2046566574; -0.604235735984
38319;PONT-EN-ROYANS;45.0609236607; 5.34591472176
49149;GENNES;47.3145776087; -0.253486023918
2A141;LETIA;42.214927495; 8.87701144967
14022;ASNELLES;49.3336519158; -0.584632970661
72087;CONFLANS-SUR-ANILLE;47.9722293803; 0.726834150431
11340;SAINTE-EULALIE;43.2427203696; 2.20565895321
24586;VILLETOUREIX;45.2729009279; 0.359083456128
70574;VOLON;47.6261770622; 5.7378809498
39040;BARRETAINE;46.810217532; 5.71788289074
97419;SAINTE-ROSE;-21.1925353922; 55.7545224725
97208;FONDS-SAINT-DENIS;14.7260291636; -61.1150746091
19144;MONTGIBAUD;45.5088660524; 1.4212214212
32305;PANJAS;43.8278400425; -0.0758955881718
19036;CHAMBERET;45.6025012498; 1.71951080332
52097;CHAMBRONCOURT;48.3521665045; 5.39965495154
89412;THIZY;47.58183768; 4.05915393328
31418;PIN-BALMA;43.6223426383; 1.53573594468
78048;BAZAINVILLE;48.8073241204; 1.66749054563
59269;GOUZEAUCOURT;50.0555182827; 3.11588275361
10339;SAINT-FLAVY;48.4064559956; 3.77621221951
24462;SAINT-MEDARD-DE-MUSSIDAN;45.0220026441; 0.331868096414
36211;SASSIERGES-SAINT-GERMAIN;46.7550023432; 1.89054741912
82124;MONTBETON;44.0135610101; 1.2703654947
12263;SAVIGNAC;44.3599482177; 1.95859629036
77308;MONTGE-EN-GOELE;49.0293871876; 2.74391030915
52135;COIFFY-LE-BAS;47.9092931665; 5.65983630677
83047;LA CRAU;43.1635207421; 6.09268351583
70180;COURCHATON;47.5135728271; 6.5542014435
24083;CARSAC-DE-GURSON;44.9404735859; 0.0946785961046
33332;PORCHERES;45.0370123077; 0.00132456186091
41281;VILLEFRANCOEUR;47.696504262; 1.20343836438
19029;BRANCEILLES;45.0080597171; 1.708482812
73058;LA BRIDOIRE;45.5299612439; 5.73849540904
82137;PARISOT;44.2617881809; 1.86571509225
24527;SAVIGNAC-LES-EGLISES;45.2753181041; 0.911755704648
17196;JAZENNES;45.5828838035; -0.615889273247
81122;LACAPELLE-PINET;44.0677076414; 2.35434693156
30123;GALLARGUES-LE-MONTUEUX;43.716675484; 4.17183197752
12206;ROUSSENNAC;44.4475523507; 2.25412829032
76260;FERRIERES-EN-BRAY;49.4862193398; 1.75819614475
27394;MARTOT;49.2780639581; 1.07107069967
46030;BIO;44.777991663; 1.78785016782
25602;VERGRANNE;47.4092336161; 6.39127050338
54598;XIVRY-CIRCOURT;49.3568414875; 5.76520028273
10134;ECHEMINES;48.3904941746; 3.83580680573
12110;GOLINHAC;44.5959231172; 2.58644592091
27549;SAINT-GERMAIN-VILLAGE;49.3448117228; 0.498708877957
32031;BASCOUS;43.7945341833; 0.136250344256
22346;TREDANIEL;48.346590108; -2.6057121928
2288;ESSIGNY-LE-PETIT;49.8961825414; 3.36742260207
28226;MAILLEBOIS;48.6321135718; 1.1501161639
35122;LA GOUESNIERE;48.6030701902; -1.88737306807
39291;LEMUY;46.889073622; 5.98241424914
25176;COURVIERES;46.8640134656; 6.09939604174
50606;TRIBEHOU;49.2091331956; -1.24592963433
38309;POISAT;45.1541844702; 5.77015327234
95574;SAINT-PRIX;49.0208224816; 2.27015066493
83083;MONTFORT-SUR-ARGENS;43.4812536631; 6.12560767207
83048;LA CROIX-VALMER;43.1951890718; 6.5862813598
32010;ARROUEDE;43.3599961769; 0.583155910425
33476;SAINT-SEURIN-DE-CADOURNE;45.2908187086; -0.80189992877
38400;SAINT-JEAN-DE-MOIRANS;45.3369408381; 5.58792748637
77147;LA CROIX-EN-BRIE;48.5944942615; 3.07093990033
8247;LANDRICHAMPS;50.0794047362; 4.82747884196
54194;FILLIERES;49.4117617368; 5.84226468429
71005;ALUZE;46.8518515249; 4.6901351827
89085;CHARMOY;47.9415525641; 3.49409153134
72133;FILLE;47.9023789335; 0.115228035183
87157;SAINT-LAURENT-LES-EGLISES;45.9635910312; 1.47506553972
89178;FONTENOUILLES;47.8828516887; 3.03264987544
65400;SALLES;43.0304838604; -0.170939051228
39007;ALIEZE;46.5850122581; 5.58578294146
95446;NESLES-LA-VALLEE;49.1260403898; 2.17176267252
51412;OGNES;48.6955801098; 3.90728218249
66158;RASIGUERES;42.7745406859; 2.59533841168
70099;BROTTE-LES-RAY;47.6070557473; 5.73659108691
54064;BERTRAMBOIS;48.576979378; 7.01618231059
61031;BEAUCHENE;48.6877082162; -0.727098830565
89019;ARTHONNAY;47.9316900287; 4.22973303932
76364;HODENG-HODENGER;49.5365103437; 1.58849427798
17212;LOUZIGNAC;45.8315187866; -0.228314120891
31331;MAUREVILLE;43.5296067212; 1.71445599659
23222;SAINT-MICHEL-DE-VEISSE;45.9536199326; 2.05002532305
28130;DIGNY;48.5287429775; 1.13541399668
9136;GOURBIT;42.828206908; 1.51547643918
2B171;MURACCIOLE;42.1685019963; 9.18999511821
33270;MARIMBAULT;44.4100701595; -0.258019615716
71073;CHAGNY;46.8985800984; 4.77433585145
78031;AUFFREVILLE-BRASSEUIL;48.954418567; 1.70514751215
24394;SAINTE-CROIX-DE-MAREUIL;45.4655946689; 0.422846944104
33039;BEGLES;44.8016009051; -0.547755768448
25264;GEMONVAL;47.5346313053; 6.59224255961
33496;SALLEBOEUF;44.8438707092; -0.39299225545
41145;MONTHOU-SUR-BIEVRE;47.4622240218; 1.27087030683
50434;LA ROCHELLE-NORMANDE;48.7641043353; -1.43534207798
6010;LE BAR-SUR-LOUP;43.6992943088; 6.96272779051
82058;FAJOLLES;43.9666339943; 1.01247908889
25450;PESSANS;47.073375698; 5.8864885222
30188;NERS;44.0243244124; 4.15845569543
3222;SAINT-CAPRAIS;46.5449333532; 2.73980095211
32064;BRETAGNE-D'ARMAGNAC;43.8896729368; 0.135584671666
68265;RANTZWILLER;47.6488310607; 7.37119412138
2731;LE SOURD;49.8656956341; 3.75208012539
62359;FRESSIN;50.4488605209; 2.05259326434
28096;LA CHAUSSEE-D'IVRY;48.8886967439; 1.48819034746
9020;ARTIGUES;42.6901417235; 2.03778896431
33471;SAINT-SAUVEUR;45.1949204348; -0.818681392214
89283;OUANNE;47.6575722012; 3.4192034023
76283;FRESLES;49.7460490098; 1.3435624982
76367;HOUPPEVILLE;49.5041147644; 1.08923677261
21640;TORCY-ET-POULIGNY;47.4974003502; 4.23612600971
36026;BRION;46.9498101823; 1.72891694176
76616;SAINT-MARTIN-DU-MANOIR;49.5371452361; 0.234830159946
45027;BEAUCHAMPS-SUR-HUILLARD;47.9441060194; 2.45463738927
38192;HURTIERES;45.2869643084; 5.96787163787
51241;EUVY;48.7176600126; 4.01995122819
63263;ORCINES;45.7867473066; 2.99703586023
10421;LA VILLENEUVE-AU-CHATELOT;48.5495270783; 3.60717347149
55547;VERNEUIL-PETIT;49.5455943768; 5.41822136927
34073;CERS;43.3302709569; 3.31729573152
24252;MARCILLAC-SAINT-QUENTIN;44.9556998288; 1.19988431809
44219;VRITZ;47.5890460017; -1.07270635632
10104;CORMOST;48.1565309093; 4.13264501348
81217;PUYCELSI;43.9765161784; 1.70709054548
55221;GUERPONT;48.7221791424; 5.25619009217
45266;RUAN;48.1088949762; 1.92407655033
46231;PUY-L'EVEQUE;44.5166104791; 1.13576954751
10116;CRESANTIGNES;48.1427730557; 4.02038435351
19221;SAINT-MARTIAL-ENTRAYGUES;45.1273004065; 1.96861582967
74273;SIXT-FER-A-CHEVAL;46.0542010133; 6.81232553172
55123;LES HAUTS-DE-CHEE;48.8683371725; 5.16520708778
58253;SAINTE-MARIE;47.111632983; 3.44705005669
42132;MALLEVAL;45.3854577768; 4.72587258984
22041;COATASCORN;48.6698011801; -3.25550198639
77135;COURPALAY;48.6431647905; 2.95363659912
74223;LA RIVIERE-ENVERSE;46.0896743627; 6.63334619957
62699;RECQUES-SUR-HEM;50.8355345504; 2.08017520799
13071;LES PENNES-MIRABEAU;43.4026791235; 5.31547094057
88048;BELLEFONTAINE;48.0103753572; 6.46413016754
40139;LAGLORIEUSE;43.8644095018; -0.395751072937
23027;BOSMOREAU-LES-MINES;46.0023571531; 1.754330245
61252;MARDILLY;48.829136334; 0.262656669322
10273;ORTILLON;48.4923353048; 4.23005258544
63065;CEILLOUX;45.6552162831; 3.51622303139
29248;SAINT-FREGANT;48.5988235193; -4.37368796467
2368;HARAMONT;49.2872759039; 3.03148977109
31369;MONT-DE-GALIE;42.9926932624; 0.646724731976
88521;VOMECOURT;48.3135963536; 6.61490143482
69185;SAINT-CHRISTOPHE;46.2545993789; 4.53354933905
46212;ORNIAC;44.5429306051; 1.67747447618
1330;RUFFIEU;46.0037108867; 5.65322391497
72369;VERNEIL-LE-CHETIF;47.7196089183; 0.298597882427
55081;BRIZEAUX;49.0062286296; 5.05620625699
74249;SAINT-PAUL-EN-CHABLAIS;46.3693047939; 6.63664025494
64442;PARBAYSE;43.3329548199; -0.549856093173
14316;GRANGUES;49.2620621593; -0.0581924167296
55007;AMBLY-SUR-MEUSE;49.0225781961; 5.45226054579
39119;LE CHATELEY;46.8795560182; 5.54443854939
66053;COLLIOURE;42.5130107325; 3.07254121467
48039;CHANAC;44.4502200567; 3.34457977647
68113;GUEMAR;48.1941685271; 7.41475007829
17285;PORT-D'ENVAUX;45.818051845; -0.672067298755
2786;VERNEUIL-SOUS-COUCY;49.5451146096; 3.31890035764
22166;PENVENAN;48.816014407; -3.30224745841
72051;CERANS-FOULLETOURTE;47.8339032596; 0.0696644872215
36019;BOMMIERS;46.7799451256; 2.00352346772
55423;REMBERCOURT-SOMMAISNE;48.9200891019; 5.17855123412
49321;SAINT-SIGISMOND;47.4512573953; -0.942796446768
84109;SAINT-HIPPOLYTE-LE-GRAVEYRON;44.1203739984; 5.07610929797
32040;BEDECHAN;43.5735987591; 0.792312827863
16036;BECHERESSE;45.5015198955; 0.0786797939692
50625;VENGEONS;48.7516936741; -0.919736845527
67478;STEINBOURG;48.7639649052; 7.41351196572
39112;LA CHASSAGNE;46.8673225647; 5.45469725641
62539;MAISNIL;50.346716103; 2.3577236191
27395;MELICOURT;48.912160796; 0.502460109315
44099;MOISDON-LA-RIVIERE;47.6222503824; -1.37465777304
47324;VILLEREAL;44.6330682255; 0.760362133124
59439;NOYELLES-SUR-SAMBRE;50.1616211802; 3.79528710452
27136;CHAIGNES;49.0138196072; 1.45166731752
38364;SAINT-BARTHELEMY-DE-SECHILIENNE;45.0394014233; 5.82200744978
40322;UZA;44.0334990797; -1.19626378992
8416;SEUIL;49.474185421; 4.45289966908
65241;LABORDE;43.0340643997; 0.294781061742
55265;LABEUVILLE;49.0924273219; 5.775136694
34101;FLORENSAC;43.3858472782; 3.4638416795
12078;LES COSTES-GOZON;44.0165312389; 2.80008517701
64291;LABASTIDE-VILLEFRANCHE;43.4542845438; -1.03617926766
66063;LES CLUSES;42.4851649751; 2.84398358463
51238;ETOGES;48.8915340584; 3.85279805872
58312;VILLIERS-SUR-YONNE;47.4134941256; 3.54865482568
86001;ADRIERS;46.2646103374; 0.789659194144
25045;BATTENANS-LES-MINES;47.4052335763; 6.27229432169
79184;LA MOTHE-SAINT-HERAY;46.3520802327; -0.119337575815
21300;GISSEY-SUR-OUCHE;47.2606866553; 4.78299335665
62357;FRESNOY;50.3739202398; 2.13763944148
2447;MAAST-ET-VIOLAINE;49.2931740531; 3.45694908531
7192;ROCHEPAULE;45.0856715901; 4.45942671204
32183;LAHITTE;43.6575045721; 0.680276833555
26182;MIRABEL-AUX-BARONNIES;44.3146283758; 5.10177171848
58067;CHAULGNES;47.1290872121; 3.10710953083
52427;ROBERT-MAGNY;48.4585319564; 4.84158114488
64516;SEDZERE;43.3402761138; -0.180181129359
28155;FONTAINE-LES-RIBOUTS;48.6550452018; 1.24758940203
75111;PARIS-11E-ARRONDISSEMENT;48.8594154976; 2.37874106024
3030;BIOZAT;46.0812713782; 3.28868518632
41232;SALBRIS;47.4134591452; 2.04499057381
95633;VAUDHERLAND;49.0004967295; 2.48642956224
27096;LES BOTTEREAUX;48.8712188786; 0.676548267263
24480;SAINT-PAUL-DE-SERRE;45.0809931657; 0.633952317617
67210;LE HOHWALD;48.4006621261; 7.31029962192
49179;LE LONGERON;47.0248722766; -1.04125178477
77004;ANDREZEL;48.6145967279; 2.8066323497
37275;VILLEDOMAIN;47.0438938302; 1.25395399014
47313;TOURTRES;44.5103644427; 0.418309119769
33502;SAUGON;45.185092781; -0.501188471075
64224;EYSUS;43.1367809349; -0.583842190325
14151;CHAMP-DU-BOULT;48.7900523867; -0.999943525576
67272;LOCHWILLER;48.6974249676; 7.414828958
27551;SAINT-JEAN-DE-LA-LEQUERAYE;49.2251680221; 0.560341025425
73301;TREVIGNIN;45.7047065922; 5.96859856205
58247;SAINT-JEAN-AUX-AMOGNES;47.0088136491; 3.34145655138
57447;MARLY;49.0658509672; 6.15231485365
40200;MOUSTEY;44.3882918763; -0.750880080586
59153;CONDE-SUR-L'ESCAUT;50.4678612037; 3.60589087978
68187;LINSDORF;47.5150509459; 7.40642698338
21505;PRECY-SOUS-THIL;47.4014711109; 4.3167537134
43124;LOUDES;45.0980880485; 3.74470915932
85190;ROCHESERVIERE;46.9274273036; -1.50132208111
63326;SAINT-BONNET-PRES-ORCIVAL;45.7078488032; 2.86424850869
88104;CIRCOURT-SUR-MOUZON;48.3053639157; 5.70211881967
10362;SAINTE-SAVINE;48.2963408998; 4.02333022061
2663;ROZIERES-SUR-CRISE;49.3227443516; 3.37101592804
91619;TORFOU;48.5320494268; 2.23447204587
21639;TILLENAY;47.1889382841; 5.3514431505
14391;MAISONS;49.3161871346; -0.752920161833
45251;PIERREFITTE-ES-BOIS;47.5109534667; 2.69207750108
78314;ISSOU;48.9869955946; 1.7891449839
81104;GIROUSSENS;43.769779769; 1.7967421125
7082;DORNAS;44.8519150741; 4.35842422121
31120;LE CASTERA;43.6709769042; 1.14478354083
81145;LISLE-SUR-TARN;43.8974980421; 1.78200143861
4006;ALLOS;44.2614961379; 6.62671789984
67191;HERBITZHEIM;49.0221359155; 7.08178967712
63111;CLEMENSAT;45.5641956437; 3.10521274351
25253;FOURG;47.0951444247; 5.80295783516
21261;FAUVERNEY;47.2625030215; 5.15013738098
2103;BOUE;50.0114554001; 3.71432024852
12296;VIALA-DU-TARN;44.0855039631; 2.83906955497
62873;WANCOURT;50.256058557; 2.85524996324
45267;SAINT-AIGNAN-DES-GUES;47.8384060176; 2.33354867238
52251;JONCHERY;48.1516102771; 5.07446482114
60162;CORBEIL-CERF;49.2772532427; 2.11061298697
39503;SAPOIS;46.7473328196; 5.94642241824
40233;POUILLON;43.606586426; -1.00135872585
22317;SAINT-MELOIR-DES-BOIS;48.4415973403; -2.25735689122
62731;RUYAULCOURT;50.0828450646; 3.01620386019
29202;PLOUNEOUR-MENEZ;48.4451584128; -3.88112677396
89292;PERCEY;47.9687913844; 3.8374991594
41019;BOISSEAU;47.7736389694; 1.30617122072
63254;NOHANENT;45.8109222583; 3.05794637762
68182;LEYMEN;47.5003880526; 7.48444885931
58004;ALLUY;47.0338777551; 3.63261778008
59491;RAISMES;50.410089317; 3.48909318774
89381;SCEAUX;47.5189022968; 4.01877053906
12005;ALPUECH;44.7485548622; 2.87755800231
76604;SAINT-MARDS;49.7605945476; 1.01478157397
2088;BIEVRES;49.4921822965; 3.7137356904
53037;BOUESSAY;47.8721398411; -0.393398326513
14368;LISORES;48.956342574; 0.211979306387
30318;SERVAS;44.1561490633; 4.19299074511
50413;PRECEY;48.6057042474; -1.37641793764
33160;EYNESSE;44.819717778; 0.14910058165
19235;SAINT-PAUL;45.2063786861; 1.89796054696
81251;SAINT-GERMAIN-DES-PRES;43.5628494713; 2.07801085173
1383;SAINT-PAUL-DE-VARAX;46.0956691617; 5.12762470203
80284;ESMERY-HALLON;49.711331314; 3.02468850154
10108;COURTAOULT;48.0248110791; 3.87198564953
86287;VEZIERES;47.0909836743; 0.127562035571
31118;CASTELNAU-D'ESTRETEFONDS;43.7938485319; 1.36164575228
47110;GONTAUD-DE-NOGARET;44.4615606607; 0.292147658255
10213;MAGNANT;48.1677499424; 4.4209760731
29180;PLOUDIRY;48.4572473494; -4.12922591839
39137;CHEMILLA;46.3507935799; 5.55838223354
46037;BOUZIES;44.4798801695; 1.63591249054
17297;RIVEDOUX-PLAGE;46.159061213; -1.28302289715
54372;MOIVRONS;48.8281038737; 6.24784004204
80320;FOLIES;49.7629825224; 2.66649413989
30269;SAINT-JEAN-DU-GARD;44.1071750382; 3.87785905992
57599;ROUPELDANGE;49.207356539; 6.47248674843
70160;COISEVAUX;47.5880541275; 6.70710563724
21213;CRIMOLOIS;47.2702959266; 5.12442359823
24165;EYGURANDE-ET-GARDEDEUIL;45.0789974169; 0.121214949187
61191;GLOS-LA-FERRIERE;48.8484777896; 0.595910350345
11078;CASTELRENG;43.0207809156; 2.12731730664
2B224;PIETRACORBARA;42.8446413084; 9.43811996376
71463;SAINT-MAURICE-LES-CHATEAUNEUF;46.2267056236; 4.25094648512
43250;VALS-LE-CHASTEL;45.2714155146; 3.52832787466
7245;SAINT-JEAN-DE-MUZOLS;45.0791512889; 4.79987361991
77328;NANTEAU-SUR-ESSONNE;48.3201309037; 2.42677043892
41163;NOURRAY;47.7184151238; 1.05012298309
11246;MONTGRADAIL;43.1233667557; 2.03299800063
54186;EULMONT;48.7501265245; 6.22215042658
3317;VIPLAIX;46.461810965; 2.36975422763
66132;PALAU-DE-CERDAGNE;42.3857763378; 1.97991972852
85160;NESMY;46.5921936479; -1.40947698594
76625;SAINT-NICOLAS-DE-BLIQUETUIT;49.5076729547; 0.724332099547
74054;CHAINAZ-LES-FRASSES;45.7784395221; 5.98960566934
59469;PRADELLES;50.7340517429; 2.60269224096
39247;GENOD;46.3574309784; 5.52980105214
61443;SAINT-PAUL;48.7391706962; -0.63036026972
62730;RUMINGHEM;50.8561596741; 2.16768057488
11155;FOURTOU;42.90966081; 2.44256346248
31204;FUSTIGNAC;43.3012693197; 0.983864621699
54517;THEZEY-SAINT-MARTIN;48.9030330285; 6.30273178932
84059;LAFARE;44.1546199628; 5.04972814303
55225;HALLES-SOUS-LES-COTES;49.4465576437; 5.12784461624
50016;APPEVILLE;49.3270407818; -1.3359052724
59431;NIEPPE;50.6992987531; 2.83247310085
18189;QUANTILLY;47.22453003; 2.4453965974
64288;LABASTIDE-CEZERACQ;43.3764513777; -0.540462234039
80038;AUCHONVILLERS;50.0820136591; 2.63330936836
43241;SOLIGNAC-SUR-LOIRE;44.9577428375; 3.88118652171
45260;RAMOULU;48.2288396246; 2.305844038
65143;CHELLE-SPOU;43.1426153635; 0.248633985629
54574;VILLERS-LA-CHEVRE;49.5055978223; 5.68894758816
76697;TORCY-LE-GRAND;49.7943785758; 1.17719285853
35238;RENNES;48.1119791219; -1.68186449144
31507;SAINT-PAUL-SUR-SAVE;43.69951639; 1.22058648021
11273;PARAZA;43.2596066026; 2.81616059215
27067;BEZU-SAINT-ELOI;49.304670197; 1.68309214752
56024;BREHAN;48.0699465844; -2.68732663005
38292;PALADRU;45.4823189588; 5.55281402751
35121;GOSNE;48.2503523895; -1.45860853595
41141;MOISY;47.9185905171; 1.31867272655
60220;ESPAUBOURG;49.4241291278; 1.8655489571
67222;INGWILLER;48.8859131079; 7.46918832697
7270;SAINT-MARTIN-SUR-LAVEZON;44.6347374682; 4.65644801966
62434;LA HERLIERE;50.1989955706; 2.55855876678
34143;LOUPIAN;43.4494192218; 3.62638267982
59504;ROEULX;50.3127229733; 3.32813430468
62264;DANNES;50.5927758846; 1.60549165729
61345;REMALARD;48.4498027895; 0.77912800072
30308;SANILHAC-SAGRIES;43.9548767362; 4.4196061912
68278;RIXHEIM;47.7495819243; 7.4072406005
65184;GALEZ;43.1867712791; 0.406830649029
6009;BAIROLS;43.9870510207; 7.11969473058
27670;VANDRIMARE;49.3827490868; 1.35158602965
6042;CLANS;44.0049097261; 7.17876366942
85096;LA GARNACHE;46.8977541296; -1.82443040539
58102;DONZY;47.3800225966; 3.11365486135
28250;MEZIERES-AU-PERCHE;48.2503282821; 1.27119066216
25089;BREMONDANS;47.231963581; 6.3971630777
18172;ORVAL;46.7220226061; 2.46720008987
39336;MOLAIN;46.8251611212; 5.81711896426
80646;PUNCHY;49.7919371127; 2.80784010263
16239;MOUZON;45.7954811744; 0.611080409863
30274;SAINT-JULIEN-LES-ROSIERS;44.1899717344; 4.10039832397
14495;PERIERS-SUR-LE-DAN;49.2572933332; -0.337426191669
57513;NOUSSEVILLER-LES-BITCHE;49.1000930479; 7.37370577565
4081;ESPARRON-DE-VERDON;43.7438250286; 5.98891639232
40012;ARTASSENX;43.8455800178; -0.395744020774
89196;GUERCHY;47.8968225975; 3.42698733417
77008;ARMENTIERES-EN-BRIE;48.9805568845; 3.01556654649
51356;MATIGNICOURT-GONCOURT;48.6750657203; 4.67663431783
80573;MORVILLERS-SAINT-SATURNIN;49.7787461187; 1.81527896317
71291;MELAY;46.1993430373; 4.01334555514
81243;SAINT-BEAUZILE;44.0274349161; 1.81723438906
2591;PARGNY-LES-BOIS;49.7323072713; 3.61788330529
26282;ROMEYER;44.7925236938; 5.43666252412
43174;SAINT-CHRISTOPHE-SUR-DOLAISON;44.9899054151; 3.82630657587
58222;RIX;47.4284202802; 3.49827889196
51319;LENHARREE;48.7792639645; 4.11685316512
60416;MONTGERAIN;49.5386638914; 2.58385170113
36023;BOUGES-LE-CHATEAU;47.0315026435; 1.66537369681
12244;SAINT-ROME-DE-TARN;44.0328970436; 2.8904868402
47083;DOUDRAC;44.6644247017; 0.679748362651
71409;SAINT-EMILAND;46.8946339034; 4.47301777155
41251;SOUVIGNY-EN-SOLOGNE;47.6491986207; 2.16743831481
71060;BRIANT;46.3008717665; 4.15112417263
18004;ALLOGNY;47.2339866645; 2.30681136882
62745;SAINT-DENOEUX;50.4773305558; 1.90952236294
57451;MARTHILLE;48.9295898959; 6.55903279348
90100;VAUTHIERMONT;47.6811834758; 7.0246637056
35344;TRESSE;48.48091901; -1.87572379132
80013;AIRAINES;49.9720712318; 1.94513035737
39045;BEFFIA;46.5315651436; 5.54829278779
29220;PONT-L'ABBE;47.8654885488; -4.21962319652
71277;MARCILLY-LES-BUXY;46.7267163499; 4.59181890283
7157;MEYSSE;44.6193386638; 4.71649252868
80339;FOUQUESCOURT;49.7707802133; 2.74741302134
67520;WASSELONNE;48.6388786162; 7.44230441985
11099;CONQUES-SUR-ORBIEL;43.2842108379; 2.38445720467
51595;VATRY;48.8237179226; 4.24189842242
8027;AUBONCOURT-VAUZELLES;49.5558989331; 4.48296681132
25379;MESMAY;47.0580777963; 5.85050213365
67488;THAL-DRULINGEN;48.9123489426; 7.13788332344
64014;AINHOA;43.2973870708; -1.48514354363
71079;CHAMPAGNAT;46.4834634223; 5.36915009557
54041;BAGNEUX;48.5571215852; 5.87679654588
84042;CUCURON;43.778224355; 5.44361580359
87158;SAINT-LAURENT-SUR-GORRE;45.7680643586; 0.973319205658
30311;SAUVE;43.9373635895; 3.95465985604
68041;BLODELSHEIM;47.8835902429; 7.52612797828
50103;CARQUEBUT;49.3744415862; -1.32327946627
28197;INTREVILLE;48.2982378814; 1.93552953534
14705;TOURNIERES;49.2304665973; -0.937851101881
80540;MESNIL-MARTINSART;50.0476233415; 2.6395201945
24324;PEYRIGNAC;45.1587056018; 1.19562965886
25020;ARBOUANS;47.4885179108; 6.80807595575
92048;MEUDON;48.8037275796; 2.22696287829
27693;SYLVAINS-LES-MOULINS;48.9028184134; 1.10269659898
14528;QUETTEVILLE;49.3419911166; 0.300133346216
64425;OREGUE;43.4048811444; -1.16532813582
57166;DALHAIN;48.8880803541; 6.56448695773
38397;SAINT-ISMIER;45.2519291498; 5.82858729623
25360;MALBRANS;47.1237345308; 6.08899892431
62767;SAINT-POL-SUR-TERNOISE;50.3883542632; 2.35010590037
61021;AVRILLY;48.53716556; -0.617581790397
2A330;UCCIANI;42.0469909829; 8.98239119896
3110;ESPINASSE-VOZELLE;46.1292798016; 3.33501762138
76602;SAINT-MACLOU-DE-FOLLEVILLE;49.6759343416; 1.09161187212
38474;SASSENAGE;45.2130962637; 5.65242107292
79158;LUCHE-SUR-BRIOUX;46.1344762201; -0.15027346601
86193;PLEUMARTIN;46.7414633324; 0.759420018765
4043;VAL-DE-CHALVAGNE;43.9046374337; 6.76578520195
70426;PROVENCHERE;47.7220120266; 6.12391376689
73007;AITON;45.5733792643; 6.257350927
36068;DUN-LE-POELIER;47.2189643606; 1.7473439973
14437;MONDEVILLE;49.1693649378; -0.310691187417
42011;BALBIGNY;45.8294764785; 4.18332533699
3134;LAFELINE;46.3446298238; 3.17548675407
14655;SAINT-PIERRE-TARENTAINE;48.9615291161; -0.786000672197
78296;GUITRANCOURT;49.0075668772; 1.77906463847
62883;WAVRANS-SUR-TERNOISE;50.409386121; 2.2840999024
63415;SAUXILLANGES;45.562939202; 3.37211320059
35072;CHATILLON-EN-VENDELAIS;48.2287242632; -1.16547272515
66123;NYER;42.5010890315; 2.27403031665
3111;ESTIVAREILLES;46.4250969781; 2.62477435556
9262;SAINT-JEAN-D'AIGUES-VIVES;42.9189081448; 1.87680686803
63073;CHADELEUF;45.5811513709; 3.18117536948
27592;SAINT-PIERRE-DE-SALERNE;49.2053766905; 0.667415097582
79195;NUEIL-LES-AUBIERS;46.9403172404; -0.596385417876
45012;AUDEVILLE;48.2801416057; 2.24290241893
94046;MAISONS-ALFORT;48.8063923267; 2.43818248906
81019;ASSAC;43.9784300195; 2.43430907568
6059;EZE;43.7289260198; 7.36057188413
21696;VILLENEUVE-SOUS-CHARIGNY;47.4364542441; 4.39988256271
62848;VERQUIN;50.5014162013; 2.64245100087
73313;VERTHEMEX;45.6285977197; 5.79833212691
68288;RUEDERBACH;47.5556783925; 7.25778215672
63200;LUSSAT;45.8379405832; 3.22624771125
53169;OLIVET;48.1207608153; -0.935026988481
25326;LANTENNE-VERTIERE;47.2313250719; 5.77272088831
44142;REMOUILLE;47.0385516844; -1.38749002799
54305;LAY-SAINT-CHRISTOPHE;48.753844505; 6.19506078007
16062;BRIE-SOUS-BARBEZIEUX;45.4238677604; -0.0407675127777
78208;ELANCOURT;48.7781596518; 1.96049898519
46308;SOUCIRAC;44.7068820239; 1.50396524795
76308;GONNEVILLE-SUR-SCIE;49.7569130904; 1.0867142722
62276;DOUVRIN;50.5121447638; 2.8263130337
8362;RETHEL;49.5131807048; 4.3835241644
57267;LE VAL-DE-GUEBLANGE;48.980310818; 6.95647659891
85268;SAINT-REVEREND;46.7057741864; -1.83155480996
59239;FLINES-LEZ-RACHES;50.4164214514; 3.18241517385
37002;AMBILLOU;47.4520562833; 0.446595189261
54063;BERNECOURT;48.8511844853; 5.84154231501
80319;FLUY;49.8596757003; 2.0859623346
24347;RAMPIEUX;44.7033705088; 0.800770543563
42318;USSON-EN-FOREZ;45.3918648082; 3.93424665058
72174;LUCE-SOUS-BALLON;48.2111457047; 0.212575045337
60171;COURTIEUX;49.3852025965; 3.08510106889
68191;LUEMSCHWILLER;47.6576144506; 7.29703045483
56096;LANDAUL;47.7417597623; -3.09860506584
5159;SALEON;44.3201551058; 5.77527169353
27667;VALAILLES;49.1179826401; 0.617010373701
11111;CRUSCADES;43.200032094; 2.81675386265
35181;LE MINIHIC-SUR-RANCE;48.5755697077; -2.01309736708
14224;DEUX-JUMEAUX;49.3547956014; -0.968791450871
35104;EPINIAC;48.4994671999; -1.70334615041
3152;LOUROUX-DE-BOUBLE;46.2297197928; 2.97309854454
50467;SAINT-FLOXEL;49.4885809022; -1.35724625484
69041;LA CHAPELLE-DE-MARDORE;46.0501235023; 4.35851626624
53052;CHAMPFREMONT;48.4329079781; -0.104054621774
76440;MOLAGNIES;49.522352135; 1.72459213347
17160;FLOIRAC;45.4763669964; -0.747580624551
69139;MONTROTTIER;45.8005219603; 4.46362962057
67536;WINDSTEIN;48.9912433394; 7.69559951845
73254;SAINTE-MARIE-D'ALVEY;45.5945348192; 5.71473062116
89337;SAINT-BRIS-LE-VINEUX;47.7397337759; 3.65690105499
84026;CADENET;43.7304056282; 5.38354319666
12220;SAINTE-EULALIE-DE-CERNON;43.960884427; 3.13884690066
68384;ZILLISHEIM;47.6858083083; 7.30319308149
23184;SAINT-BARD;45.9133006129; 2.40762090733
60460;LA NEUVILLE-VAULT;49.4890118867; 1.96688277958
58116;FLEZ-CUZY;47.3584468681; 3.63385591808
69096;GRIGNY;45.6080535265; 4.78645083138
7138;LAVILLEDIEU;44.5821673927; 4.44782050169
36056;CLUIS;46.5352767635; 1.74340331959
76220;DOUVREND;49.8737591208; 1.31959584474
62691;REBECQUES;50.6486142358; 2.30256500172
31378;MONTGAILLARD-SUR-SAVE;43.2545847834; 0.717487034111
93074;VAUJOURS;48.9324772605; 2.5810025704
54477;SAINT-JULIEN-LES-GORZE;49.0182448248; 5.90427864143
76184;COLMESNIL-MANNEVILLE;49.8474747525; 1.02876696183
11067;CANET;43.2263270796; 2.83123999016
14082;LA BOISSIERE;49.129950391; 0.132026565149
72109;CRISSE;48.1802737725; -0.0645153355055
55407;PONT-SUR-MEUSE;48.8080941031; 5.55195590684
65312;MOLERE;43.0973035068; 0.300278702333
28088;CHATEAUDUN;48.0762457334; 1.32636728625
2571;OMISSY;49.8804267246; 3.29788036707
1272;NEUVILLE-LES-DAMES;46.1567753049; 5.00942432434
82001;ALBEFEUILLE-LAGARDE;44.0482971636; 1.27398142654
83017;BELGENTIER;43.2399564384; 5.99665900105
30294;SAINT-PRIVAT-DES-VIEUX;44.1416859983; 4.13063351815
82091;LAMOTHE-CUMONT;43.8829270496; 0.913928018748
18284;VILLEGENON;47.4175834406; 2.59936995832
76296;GAINNEVILLE;49.5177433404; 0.255469072963
54248;HAMONVILLE;48.8244409233; 5.808080587
16422;VOUZAN;45.6000909965; 0.359871662145
39226;FLORENTIA;46.3952767607; 5.42102497161
46229;PUYBRUN;44.9213943929; 1.78724150128
39042;BAVERANS;47.1054660171; 5.53628421421
2B339;VALLICA;42.517352745; 9.05742075675
38468;SALAISE-SUR-SANNE;45.3442511828; 4.80860532784
27389;MARBEUF;49.1542331428; 0.962852626564
74089;CORDON;45.909121538; 6.56940992155
25121;CHAPELLE-DES-BOIS;46.606672007; 6.10775555362
55290;LIGNIERES-SUR-AIRE;48.8104118654; 5.39217105616
84113;SAINT-MARTIN-DE-LA-BRASQUE;43.7640135964; 5.53975821596
63132;CUNLHAT;45.6303425286; 3.56287931079
52161;DAILLECOURT;48.0727138198; 5.50793307633
30104;DOMESSARGUES;43.9732979744; 4.16569285159
45278;SAINTE-GENEVIEVE-DES-BOIS;47.8115452338; 2.79379001836
81022;BANNIERES;43.6190407005; 1.75804967667
59326;KILLEM;50.9575597067; 2.55978032528
46182;LUZECH;44.4857575598; 1.27596849228
16108;COULONGES;45.8376302744; 0.0898755953494
46193;MIERS;44.8603418758; 1.70422523019
40252;SAINTE-COLOMBE;43.6810025684; -0.556768147827
21682;VIEVIGNE;47.435689036; 5.24044596193
29225;POULDREUZIC;47.9612717515; -4.36413265082
36222;THIZAY;46.8989940984; 1.92934750416
79045;BOUIN;46.0911898215; -0.013229553499
27192;CROSVILLE-LA-VIEILLE;49.1515342749; 0.931538491399
16042;BESSE;45.9581333221; 0.0818571588343
80228;LE CROTOY;50.2439123347; 1.62316246487
70170;CONTREGLISE;47.8413661613; 6.02951411465
8135;LA CROIX-AUX-BOIS;49.4054523521; 4.78917859814
1033;BELLEGARDE-SUR-VALSERINE;46.1067901755; 5.83202736464
33401;SAINTE-FLORENCE;44.8173313426; -0.0924823027936
45313;SOUGY;48.0581126003; 1.80118276124
67177;GUNSTETT;48.9150746894; 7.77903805347
47099;FONGRAVE;44.4050058325; 0.529808285762
48065;FRAISSINET-DE-FOURQUES;44.2089087169; 3.53134006271
79258;SAINT-JACQUES-DE-THOUARS;46.9694218287; -0.233924746738
32046;BERNEDE;43.6704966634; -0.220993320987
1082;CHANAY;46.005695299; 5.76893393185
57129;CHARLY-ORADOUR;49.1760119243; 6.24626769306
68029;BERGHOLTZ;47.9204515287; 7.2473083241
39162;CONDAMINE;46.649905188; 5.43493044694
63209;MAREUGHEOL;45.4840734656; 3.16169878471
2793;VEZAPONIN;49.4667498193; 3.22298094528
45055;BRICY;48.0009914345; 1.77493058456
80218;COURCELLES-SOUS-MOYENCOURT;49.8097148289; 2.04154408468
22272;SAINT-AGATHON;48.5628506514; -3.10081732497
15108;LOUBARESSE;44.9384891268; 3.20556437292
53159;MONTOURTIER;48.2124575885; -0.554264699743
21483;PICHANGES;47.4561192838; 5.15835923398
5040;CHORGES;44.5455124295; 6.28782392595
82043;COMBEROUGER;43.8719884875; 1.09282788935
54101;BROUVILLE;48.4922395199; 6.74929356253
65326;MUN;43.2803464506; 0.270777277359
27292;GOUTTIERES;49.0183083116; 0.738338507653
85186;LA RABATELIERE;46.8584147661; -1.2569733759
27152;CHATEAU-SUR-EPTE;49.2004173663; 1.65874504917
33102;CASSEUIL;44.589045515; -0.118981195869
38124;CORBELIN;45.6024192088; 5.55271499318
56107;LARMOR-PLAGE;47.7159229255; -3.39111373247
64430;ORTHEZ;43.4943173399; -0.779874853399
88141;DOMBROT-SUR-VAIR;48.2650411994; 5.89084030317
16321;SAINT-GEORGES;45.9760746261; 0.269280643049
57698;VATIMONT;48.9782586379; 6.4742819411
21088;BONCOURT-LE-BOIS;47.1377542581; 4.99799682538
56173;PLUMELIAU;47.9650479618; -2.98095397344
62296;ENQUIN-SUR-BAILLONS;50.57162689; 1.84772501897
32065;LE BROUILH-MONBERT;43.6604118625; 0.395065055584
35264;SAINT-DIDIER;48.0932158644; -1.35806845203
59487;RADINGHEM-EN-WEPPES;50.6281404058; 2.89866058213
2036;AUGY;49.340063724; 3.5110198819
80306;FESCAMPS;49.6415538079; 2.6866324021
15072;FREIX-ANGLARDS;45.0176478672; 2.37730578519
53193;RUILLE-FROID-FONDS;47.9061787546; -0.625211049544
67366;OTTERSTHAL;48.7589616687; 7.34210158035
62892;WILLERVAL;50.3625979947; 2.84933464088
24430;SAINT-JULIEN-DE-BOURDEILLES;45.3610424425; 0.584494313676
32396;SAINT-MEZARD;44.0338368158; 0.56893422575
61377;SAINT-CORNIER-DES-LANDES;48.7211160708; -0.726119306295
74079;LES CLEFS;45.8448702892; 6.32686437969
89057;BROSSES;47.5311094024; 3.68947320566
41224;SAINT-MARC-DU-COR;47.9680036234; 0.968517516884
51399;LA NEUVILLE-AU-PONT;49.1302299148; 4.85184152327
33329;POMPEJAC;44.3995823965; -0.298890658986
21548;SAINT-GERMAIN-DE-MODEON;47.3721000365; 4.12417498472
33073;BRAUD-ET-SAINT-LOUIS;45.2544518508; -0.646204430347
77533;VULAINES-SUR-SEINE;48.4316360223; 2.7693476397
63096;CHAS;45.7472569761; 3.30727070935
78117;BUC;48.7718338876; 2.12394286717
46244;SABADEL-LATRONQUIERE;44.7266880889; 2.06622639208
21340;LANTHES;46.9990158896; 5.20408699445
88371;RAON-AUX-BOIS;48.0563851529; 6.51474644165
61027;BATILLY;48.7257261452; -0.179853434591
8123;CHUFFILLY-ROCHE;49.4510357652; 4.62193241864
25578;VALDAHON;47.1633469819; 6.33226254465
70441;RECOLOGNE-LES-RIOZ;47.4687979671; 5.98297924025
10014;ASSENCIERES;48.3556065426; 4.20154600861
88445;SAULCY-SUR-MEURTHE;48.2424754243; 6.94912538655
85151;MORTAGNE-SUR-SEVRE;46.9910941319; -0.946500033344
60010;AMBLAINVILLE;49.2071001179; 2.12057880418
80018;ALLENAY;50.0864703319; 1.49294201709
53092;DEUX-EVAILLES;48.1912601242; -0.522772642393
57695;VARIZE;49.1254107578; 6.44934014942
11436;VILLESEQUE-DES-CORBIERES;43.0182115243; 2.85759896438
7059;CHATEAUBOURG;44.9874244104; 4.83836116211
76681;SOTTEVILLE-LES-ROUEN;49.4104887444; 1.09509946531
68199;MALMERSPACH;47.8597012807; 7.0228099709
1115;CONFRANCON;46.270304175; 5.05775217893
7170;PAILHARES;45.0796648371; 4.55727839601
1414;SUTRIEU;45.9311367808; 5.64988248129
76588;SAINT-HELLIER;49.739289577; 1.19753481134
65197;GER;43.0533440987; -0.041359283067
82106;MAUBEC;43.8036755051; 0.924111218572
95580;SAINT-WITZ;49.0857837241; 2.55227615042
44203;LE TEMPLE-DE-BRETAGNE;47.3284386017; -1.79041386059
64261;HERRERE;43.1595542922; -0.545488112075
57307;HAYES;49.1699634472; 6.37852476248
63249;NERONDE-SUR-DORE;45.7989836343; 3.5070472328
38074;CHANTESSE;45.2459657752; 5.44704031612
14579;SAINT-GEORGES-D'AUNAY;49.0267772033; -0.688629006888
53103;LE GENEST-SAINT-ISLE;48.104173372; -0.895219707599
23165;ROYERE-DE-VASSIVIERE;45.8375355848; 1.90167387635
83039;CHATEAUVERT;43.5012629533; 6.01120516318
22056;EVRAN;48.3848559678; -1.97961537709
52370;OSNE-LE-VAL;48.4981170566; 5.20118415597
60021;APPILLY;49.582424474; 3.12116123031
13080;LE PUY-SAINTE-REPARADE;43.6518285649; 5.43958389565
44130;PONT-SAINT-MARTIN;47.126582936; -1.56594193848
56113;LOCMALO;48.0622114432; -3.18337050069
26057;BOURG-DE-PEAGE;45.0171592111; 5.05096546169
16069;CELLETTES;45.8643336097; 0.145594673488
11192;LASBORDES;43.2996016528; 2.06333742676
71439;SAINT-LEGER-LES-PARAY;46.4848826059; 4.1163312741
11103;COUIZA;42.9352199297; 2.27047605296
8424;SOMMAUTHE;49.5025511911; 4.98687284799
29203;PLOUNEOUR-TREZ;48.6478999131; -4.3294006233
86226;SAINT-JULIEN-L'ARS;46.5546778015; 0.506618351155
38003;AGNIN;45.3365990336; 4.85997858164
27521;SAINT-CHRISTOPHE-SUR-AVRE;48.6988286398; 0.805102409427
55344;MONTBRAS;48.5153868171; 5.70082281043
1300;LE POIZAT;46.1432950473; 5.67440958637
59633;WALLERS-EN-FAGNE;50.0613544764; 4.16718008292
43145;OUIDES;44.9060432903; 3.7403767146
34310;THEZAN-LES-BEZIERS;43.4132925116; 3.15810877475
68054;BRINCKHEIM;47.6210927169; 7.45833574797
39201;DOUCIER;46.6499567029; 5.77799951166
24512;SAINT-VINCENT-LE-PALUEL;44.8833667708; 1.27542467394
50117;CHAMPEAUX;48.7377829694; -1.52927055978
14520;LE PRE-D'AUGE;49.1496506404; 0.145754077347
38149;DOMARIN;45.581670022; 5.24542934804
7199;ROSIERES;44.492135712; 4.26203943269
70468;SAINT-MARCEL;47.8253832848; 5.8194773188
31212;GARIDECH;43.7133738852; 1.55161276907
82128;MONTFERMIER;44.2279188448; 1.41564723711
76408;MANNEVILLE-LA-GOUPIL;49.6116014086; 0.347552661099
47059;CAUBON-SAINT-SAUVEUR;44.5927480005; 0.184135065483
27535;SAINT-ELIER;48.9837315688; 0.961361003567
4193;SAINT-PAUL-SUR-UBAYE;44.5588988433; 6.82078770145
64509;SAUGUIS-SAINT-ETIENNE;43.1581269508; -0.873283147655
2173;CHAUNY;49.619880673; 3.21875355041
59648;WATTIGNIES;50.5864928159; 3.04193803597
21149;CHARREY-SUR-SEINE;47.9524790973; 4.54026647468
19112;LESTARDS;45.5412768254; 1.86439774185
65285;LOUIT;43.3006855002; 0.16086842567
6044;LA COLLE-SUR-LOUP;43.6871701387; 7.09773643833
66147;PORTE-PUYMORENS;42.555415554; 1.83547052209
82145;PUYGAILLARD-DE-QUERCY;44.0245113626; 1.63164922322
39367;MORBIER;46.55692328; 6.01610878304
60365;LIHUS;49.6046293138; 2.03925521235
65092;BEYREDE-JUMET;42.9554911892; 0.338191810154
39559;LA VIEILLE-LOYE;47.05632725; 5.63130626887
54292;LAMATH;48.5201883757; 6.44306273905
2A204;PASTRICCIOLA;42.1434520228; 9.01623489472
50552;SAINT-SEBASTIEN-DE-RAIDS;49.1953005849; -1.37598924689
36146;ORSENNES;46.4793175378; 1.69542411224
24465;SAINT-MICHEL-DE-DOUBLE;45.0913598278; 0.274915293207
21517;QUINCEY;47.1072396532; 4.9719971557
33294;MORIZES;44.6140049596; -0.0976758090404
30052;BREAU-ET-SALAGOSSE;44.0295400705; 3.55673412919
54471;SAINT-BOINGT;48.4186728188; 6.42962191006
56211;SAINT-CONGARD;47.7680806028; -2.32893095384
43010;ARSAC-EN-VELAY;44.9936614826; 3.95457009632
23047;CHAMBORAND;46.1570722156; 1.57302585912
59597;TILLOY-LEZ-CAMBRAI;50.2010948825; 3.21429536974
43082;CRONCE;45.0823765645; 3.36213253048
64289;LA BASTIDE-CLAIRENCE;43.417654264; -1.23211183617
63365;SAINT-JEAN-DES-OLLIERES;45.6417405578; 3.43719352048
89154;ESCAMPS;47.7177692748; 3.47307676969
55416;RARECOURT;49.0748050041; 5.09770601968
76669;SAUSSEUZEMARE-EN-CAUX;49.6710119926; 0.350018167711
4197;SAINTE-TULLE;43.7830482525; 5.77302331731
81089;FAUSSERGUES;44.0406000553; 2.43023975408
65441;THEBE;42.9569919341; 0.60265452454
66232;VIRA;42.7632437549; 2.39447328597
25087;BRANNE;47.3794678972; 6.47979347027
57151;CONTHIL;48.8916747657; 6.66400638326
17333;SAINT-GEORGES-DE-DIDONNE;45.6036278448; -0.980098297165
43219;SAINT-PREJET-ARMANDON;45.2494259464; 3.55233411018
73229;SAINT-CHRISTOPHE;45.4517904868; 5.78599778512
95331;LASSY;49.0949281199; 2.4378486193
2486;MISSY-LES-PIERREPONT;49.6279354887; 3.7841954065
79105;COUTIERES;46.4989423539; -0.107332373635
71381;SAILLY;46.5326888362; 4.56213978811
30350;LE VIGAN;43.9886565575; 3.62522883405
73296;TIGNES;45.4816828491; 6.93635513554
86047;CERNAY;46.8366061305; 0.301673883746
89086;CHARNY;47.8862119429; 3.09764224265
24255;MARQUAY;44.9410957148; 1.12837683704
86258;SCORBE-CLAIRVAUX;46.8070996218; 0.410520780394
50440;ROUFFIGNY;48.8087583245; -1.24387259651
31297;LEVIGNAC;43.6593918197; 1.20389227339
17221;MARSAIS;46.1217050535; -0.619473280005
63012;ARTONNE;46.0058522543; 3.15012499904
7161;MONTPEZAT-SOUS-BAUZON;44.7167471772; 4.19649706588
40118;HABAS;43.5613150777; -0.932453413286
62635;OFFIN;50.4419639304; 1.95243278829
91666;VILLEJUST;48.6777382383; 2.22294283132
17377;SAINT-OUEN;45.8643049345; -0.170063984534
47196;NICOLE;44.3322287429; 0.33213854821
76568;SAINT-CLAIR-SUR-LES-MONTS;49.6020863264; 0.784520444283
72326;SAOSNES;48.3259873984; 0.288443058218
14131;CANAPVILLE;49.317093511; 0.136082039095
17190;L'HOUMEAU;46.1935718627; -1.18641543002
80802;VILLERS-FAUCON;49.9770164855; 3.10650017982
27344;HOULBEC-PRES-LE-GROS-THEIL;49.2511635296; 0.826990094932
34112;GARRIGUES;43.7983239512; 4.01049087518
17110;CLERAC;45.170720294; -0.234166115218
89053;BRANCHES;47.876336004; 3.48199156683
17325;SAINT-DIZANT-DU-GUA;45.4259413548; -0.710571856304
17348;SAINT-JEAN-D'ANGLE;45.8311345147; -0.972275648087
13041;GARDANNE;43.4526063249; 5.47963860272
32004;ARBLADE-LE-BAS;43.705221087; -0.17265437468
38210;LEYRIEU;45.7563040682; 5.25503498481
45074;LA CHAPELLE-ONZERAIN;48.0330297955; 1.61102196598
77294;MITRY-MORY;48.9779450158; 2.61244465751
39114;CHATEAU-CHALON;46.7594016188; 5.64816991256
4017;AUZET;44.3054001563; 6.31115592449
24044;BLIS-ET-BORN;45.1694612818; 0.908122714829
39337;MOLAMBOZ;46.951688723; 5.68053538603
71184;DRACY-SAINT-LOUP;47.0145624747; 4.34030409282
66189;SALEILLES;42.6568410057; 2.94920487175
31509;SAINT-PE-D'ARDET;42.9860697615; 0.679972122876
67101;DORLISHEIM;48.5199427115; 7.48035735807
2415;LAVERSINE;49.3528718857; 3.15459651522
